[{"id": 0, "lat": 25.07725, "lng": 55.30927, "org": "Hetzner Online GmbH", "city": "Dubai", "api": "Exposed SCADA/HMI Interfaces", "count": 546, "ips": ["46.224.1.125", "46.224.10.49", "46.224.104.30", "46.224.108.35", "46.224.108.49", "46.224.110.79", "46.224.111.169", "46.224.111.45", "46.224.112.192", "46.224.113.31", "46.224.115.105", "46.224.115.128", "46.224.116.117", "46.224.116.160", "46.224.117.174", "46.224.117.45", "46.224.119.22", "46.224.12.221", "46.224.12.241", "46.224.12.29"], "domains": ["11box.de", "1902dev3.com", "4bw.eu", "activigo.app", "afel.co.uk"]}, {"id": 1, "lat": 25.1351, "lng": 55.2273, "org": "IQWeb FZ-LLC", "city": "Dubai", "api": "Exposed SCADA/HMI Interfaces", "count": 9, "ips": ["186.2.163.226", "186.2.163.45", "186.2.163.87", "186.2.165.204", "186.2.165.245", "186.2.171.21", "190.115.16.2", "190.115.31.122", "190.115.31.197"], "domains": ["ddos-guard.net", "neuralreserve.info"]}, {"id": 2, "lat": 25.07725, "lng": 55.30927, "org": "Microsoft Corporation", "city": "Dubai", "api": "Exposed SCADA/HMI Interfaces", "count": 121, "ips": ["20.174.103.161", "20.174.12.85", "20.174.153.162", "20.174.160.82", "20.174.192.147", "20.174.216.161", "20.174.218.255", "20.174.234.83", "20.174.26.38", "20.174.3.14", "20.174.41.30", "20.174.42.42", "20.174.45.24", "20.174.46.46", "20.174.55.141", "20.174.55.54", "20.174.59.61", "20.174.60.63", "20.174.64.26", "20.174.65.85"], "domains": ["adports.ae", "ajmanded.ae", "alfuttaim.com", "amitintl.com", "azure-api.net"]}, {"id": 3, "lat": 25.07725, "lng": 55.30927, "org": "Amazon Data Services UAE", "city": "Dubai", "api": "Exposed SCADA/HMI Interfaces", "count": 132, "ips": ["158.252.103.221", "158.252.104.114", "158.252.108.162", "158.252.112.228", "158.252.114.72", "158.252.115.231", "158.252.117.67", "158.252.120.110", "158.252.128.190", "158.252.13.28", "158.252.130.133", "158.252.139.63", "158.252.140.229", "158.252.143.175", "158.252.144.123", "158.252.151.38", "158.252.153.217", "158.252.166.72", "158.252.170.91", "158.252.171.205"], "domains": ["a2z.com", "alliancecaretech.com", "amazon.com", "amazonaws.com", "api.aws"]}, {"id": 4, "lat": 25.07725, "lng": 55.30927, "org": "EMIRATES TELECOMMUNICATIONS GROUP COMPANY (ETISALAT GROUP) PJSC", "city": "Dubai", "api": "Exposed SCADA/HMI Interfaces", "count": 33, "ips": ["151.253.119.101", "151.253.126.6", "151.253.138.68", "151.253.143.102", "151.253.143.111", "151.253.143.29", "151.253.143.38", "151.253.158.163", "151.253.164.125", "151.253.229.140", "151.253.229.206", "151.253.229.222", "195.229.39.166", "195.229.39.53", "195.229.39.54", "195.229.39.63", "195.229.39.75", "195.229.57.100", "213.42.158.209", "213.42.212.249"], "domains": ["SGMB.AE", "alshamil.net.ae", "emarineglobal.com", "emexdwc.ae", "etisalat.ae"]}, {"id": 5, "lat": 25.11641, "lng": 56.34141, "org": "Akamai Technologies", "city": "Al Fujairah City", "api": "Exposed SCADA/HMI Interfaces", "count": 25, "ips": ["2.16.44.21", "2.20.249.225", "2.21.231.164", "92.122.0.167", "92.122.10.252", "92.122.10.53", "92.122.10.6", "92.122.11.213", "92.122.11.26", "92.122.3.18", "92.122.3.197", "92.122.5.135", "92.122.5.74", "92.122.6.117", "92.122.6.181", "92.122.6.237", "92.122.6.84", "92.122.8.170", "92.122.9.105", "92.123.157.139"], "domains": ["accretivehealth.com", "actforimpact.bnpparibas", "akamai.net", "akamaitechnologies.com", "apple.com"]}, {"id": 6, "lat": 25.1351, "lng": 55.2273, "org": "GOLD IP L.L.C-FZ", "city": "Dubai", "api": "Exposed SCADA/HMI Interfaces", "count": 15, "ips": ["217.60.48.102", "217.60.48.41", "217.60.49.127", "217.60.49.185", "217.60.49.212", "217.60.49.73", "217.60.50.151", "217.60.50.172", "217.60.50.54", "217.60.50.79", "217.60.51.153", "217.60.51.195", "217.60.51.237", "217.60.51.24", "217.60.51.34"], "domains": []}, {"id": 7, "lat": 25.33737, "lng": 55.41206, "org": "Emirates Telecommunications Corporation", "city": "Sharjah", "api": "Exposed SCADA/HMI Interfaces", "count": 55, "ips": ["109.177.193.130", "109.177.197.67", "109.177.198.115", "2.49.59.112", "2.49.59.179", "2.49.61.150", "2.50.101.169", "2.50.14.184", "2.50.26.37", "2.50.31.54", "2.50.52.174", "2.50.54.143", "2.50.98.168", "2.51.127.18", "2.51.46.91", "2.51.47.212", "217.165.103.83", "217.165.153.169", "31.215.138.135", "5.107.126.78"], "domains": ["3cx.ae", "alshamil.net.ae", "arh.ae", "draytek.com", "fortiddns.com"]}, {"id": 8, "lat": 25.07725, "lng": 55.30927, "org": "Emirates Integrated Telecommunications Company PJSC (EITC-DU)", "city": "Dubai", "api": "Exposed SCADA/HMI Interfaces", "count": 14, "ips": ["80.227.3.196", "80.227.52.42", "80.227.61.62", "87.200.254.247", "87.201.144.189", "87.201.193.118", "87.201.63.202", "91.72.120.84", "91.72.147.254", "91.72.196.60", "94.201.17.137", "94.204.15.241", "94.205.83.251", "94.205.84.232"], "domains": ["danmagi.com", "emirates.group", "sna.tv", "voicemeetme.com"]}, {"id": 9, "lat": 25.1351, "lng": 55.2273, "org": "Incapsula Inc", "city": "Dubai", "api": "Exposed SCADA/HMI Interfaces", "count": 23, "ips": ["45.64.64.173", "45.64.64.22", "45.64.64.241", "45.64.64.88", "45.64.66.122", "45.64.66.169", "45.64.66.170", "45.64.66.172", "45.64.66.180", "45.64.66.21", "45.64.66.210", "45.64.66.22", "45.64.66.232", "45.64.66.28", "45.64.66.31", "45.64.67.163", "45.64.67.17", "45.64.67.173", "45.64.67.190", "45.64.67.192"], "domains": ["ecacum-ocp.fr", "galdermanordic.com", "gbgplc.com", "imperva.com", "mckessonaccelerate.com"]}, {"id": 10, "lat": 25.07725, "lng": 55.30927, "org": "Oracle Svenska AB", "city": "Dubai", "api": "Exposed SCADA/HMI Interfaces", "count": 7, "ips": ["84.235.240.103", "84.235.241.18", "84.235.241.34", "84.235.242.52", "84.235.245.235", "84.235.251.141", "84.235.251.82"], "domains": ["adamnotfound.com", "aswat.co", "paymobsolutions.com"]}, {"id": 11, "lat": 24.19167, "lng": 55.76056, "org": "Oracle Svenska AB", "city": "Al Ain City", "api": "Exposed SCADA/HMI Interfaces", "count": 2, "ips": ["84.235.137.32", "84.235.151.173"], "domains": ["etisalat.ae"]}, {"id": 12, "lat": 25.07725, "lng": 55.30927, "org": "Akamai Technologies, Inc.", "city": "Dubai", "api": "Exposed SCADA/HMI Interfaces", "count": 16, "ips": ["104.109.251.192", "23.194.193.130", "23.194.193.160", "23.194.193.177", "23.194.193.204", "23.194.193.99", "23.194.194.106", "23.194.194.149", "23.194.195.128", "23.47.112.183", "23.47.112.46", "23.47.113.115", "23.47.113.224", "23.55.113.128", "23.63.235.12", "23.63.235.30"], "domains": ["akamai.net", "akamaitechnologies.com", "autodesk.com", "gcash.com", "goo.ne.jp"]}, {"id": 13, "lat": 25.11641, "lng": 56.34141, "org": "Akamai Technologies, Inc.", "city": "Al Fujairah City", "api": "Exposed SCADA/HMI Interfaces", "count": 62, "ips": ["104.73.172.99", "184.29.28.193", "184.29.29.96", "23.195.39.126", "23.195.60.104", "23.195.60.188", "23.195.62.117", "23.195.62.232", "23.195.62.246", "23.195.63.237", "23.208.212.161", "23.208.215.207", "23.32.93.22", "23.35.128.11", "23.35.128.124", "23.35.129.113", "23.35.130.118", "23.35.131.249", "23.35.132.139", "23.35.132.60"], "domains": ["0101.co.jp", "akamai.com", "akamai.net", "akamaitechnologies.com", "apple.com"]}, {"id": 14, "lat": 25.07725, "lng": 55.30927, "org": "Amazon.com, Inc.", "city": "Dubai", "api": "Exposed SCADA/HMI Interfaces", "count": 64, "ips": ["108.139.59.14", "108.139.60.90", "108.139.61.109", "108.139.61.26", "108.139.62.120", "108.139.62.60", "108.139.63.19", "108.139.65.28", "108.139.66.111", "108.139.66.222", "108.139.68.160", "108.139.71.248", "108.139.74.248", "108.139.74.52", "108.139.76.100", "108.139.76.207", "108.139.76.221", "108.139.77.164", "108.139.77.67", "108.139.80.183"], "domains": ["amazon.com", "amazon.dev", "auone.jp", "aws.dev", "cloudfront.net"]}, {"id": 15, "lat": 25.07725, "lng": 55.30927, "org": "A100 ROW Inc", "city": "Dubai", "api": "Exposed SCADA/HMI Interfaces", "count": 36, "ips": ["51.112.127.131", "51.112.13.171", "51.112.150.249", "51.112.157.92", "51.112.163.164", "51.112.167.43", "51.112.168.178", "51.112.17.81", "51.112.187.235", "51.112.2.43", "51.112.202.119", "51.112.209.50", "51.112.218.50", "51.112.230.201", "51.112.239.73", "51.112.24.163", "51.112.250.224", "51.112.252.192", "51.112.252.36", "51.112.253.148"], "domains": ["akur8-tech.com", "amazonaws.com", "api.aws", "aws.dev", "biointellisense.com"]}, {"id": 16, "lat": 24.45118, "lng": 54.39696, "org": "Emirates Telecommunications Corporation", "city": "Abu Dhabi", "api": "Exposed SCADA/HMI Interfaces", "count": 43, "ips": ["176.205.100.121", "176.205.36.215", "2.48.134.81", "2.50.158.161", "2.50.16.242", "2.50.182.58", "2.50.74.148", "217.164.13.7", "217.164.246.11", "217.164.59.188", "217.165.205.213", "217.165.56.26", "31.215.137.21", "31.215.140.133", "31.215.159.14", "31.215.183.18", "31.215.192.176", "5.194.172.16", "5.194.194.139", "5.194.223.102"], "domains": ["alshamil.net.ae", "draytek.com", "fortiddns.com"]}, {"id": 17, "lat": 25.00255, "lng": 55.10811, "org": "EMIRATES TELECOMMUNICATIONS GROUP COMPANY (ETISALAT GROUP) PJSC", "city": "Jebel Ali", "api": "Exposed SCADA/HMI Interfaces", "count": 1, "ips": ["5.195.24.36"], "domains": ["element.com"]}, {"id": 18, "lat": 25.07725, "lng": 55.30927, "org": "Emirates Telecommunications Corporation", "city": "Dubai", "api": "Exposed SCADA/HMI Interfaces", "count": 52, "ips": ["176.204.239.211", "176.204.241.160", "176.205.79.1", "2.48.2.24", "2.49.148.59", "2.49.151.44", "2.49.180.223", "2.49.183.23", "2.49.24.35", "2.49.72.244", "2.49.75.237", "2.49.90.229", "2.49.93.182", "2.49.98.106", "2.50.190.240", "2.50.41.37", "2.50.79.80", "2.51.238.1", "2.51.39.204", "2.51.57.203"], "domains": ["alshamil.net.ae", "arubanetworks.com", "drayddns.com", "draytek.com", "ekfccloud.ae"]}, {"id": 19, "lat": 25.07725, "lng": 55.30927, "org": "China_Telecom_South_Africa", "city": "Dubai", "api": "Exposed SCADA/HMI Interfaces", "count": 1, "ips": ["154.198.3.139"], "domains": ["lifestylehomeway.com"]}, {"id": 20, "lat": 25.11641, "lng": 56.34141, "org": "Fastly, Inc.", "city": "Al Fujairah City", "api": "Exposed SCADA/HMI Interfaces", "count": 5, "ips": ["151.101.141.119", "151.101.141.33", "151.101.142.155", "151.101.142.219", "151.101.142.8"], "domains": ["baqend.com", "grabarz-group.de", "grabarzundpartner.de", "graincorp-seasonupdate.com.au", "hbo.com"]}, {"id": 21, "lat": 25.07725, "lng": 55.30927, "org": "Emirates Integrated Telecommunications Company PJSC", "city": "Dubai", "api": "Exposed SCADA/HMI Interfaces", "count": 24, "ips": ["2a00:f28:0:1:40:1027:c000:26", "2a00:f28:0:1:40:1027:c000:2a", "2a00:f28:2:241::2", "2a00:f28:2:242::2", "2a00:f28:2:243::2", "5.30.208.223", "5.30.223.219", "5.30.98.157", "5.32.121.30", "5.32.31.154", "5.32.79.101", "94.200.113.50", "94.200.235.10", "94.200.25.154", "94.200.38.58", "94.200.62.214", "94.200.69.150", "94.206.155.5", "94.206.165.102", "94.206.44.130"], "domains": ["arubanetworks.com", "du.ae", "emirates.com", "ktcco.net", "thenetwork-com.com"]}, {"id": 22, "lat": 25.11641, "lng": 56.34141, "org": "CDNetworks", "city": "Al Fujairah City", "api": "Exposed SCADA/HMI Interfaces", "count": 8, "ips": ["101.79.158.136", "101.79.158.14", "101.79.158.166", "101.79.158.201", "101.79.158.67", "101.79.158.98", "14.0.56.187", "14.0.61.212"], "domains": []}, {"id": 23, "lat": 25.07725, "lng": 55.30927, "org": "Emirates Internet", "city": "Dubai", "api": "Exposed SCADA/HMI Interfaces", "count": 1, "ips": ["194.170.165.100"], "domains": ["emirates.net.ae", "fbcdn.net"]}, {"id": 24, "lat": 25.07725, "lng": 55.30927, "org": "EDIS Infrastructure in UAE", "city": "Dubai", "api": "Exposed SCADA/HMI Interfaces", "count": 2, "ips": ["89.31.120.20", "89.31.120.88"], "domains": ["89.in-addr.arpa", "encryptitservices.com"]}, {"id": 25, "lat": 25.11641, "lng": 56.34141, "org": "Akamai International, BV", "city": "Al Fujairah City", "api": "Exposed SCADA/HMI Interfaces", "count": 11, "ips": ["23.206.100.225", "23.206.102.235", "23.206.103.94", "23.206.104.128", "23.206.104.91", "23.206.105.164", "23.206.106.112", "23.206.111.205", "23.206.111.93", "23.206.98.162", "23.206.98.210"], "domains": ["53.com", "akamaitechnologies.com", "bigmachines.com", "oracle.com"]}, {"id": 26, "lat": 25.07725, "lng": 55.30927, "org": "Bedge Co Limited", "city": "Dubai", "api": "Exposed SCADA/HMI Interfaces", "count": 1, "ips": ["154.94.76.52"], "domains": []}, {"id": 27, "lat": 24.45118, "lng": 54.39696, "org": "Oryxlabs Technologies - Sole Proprietorship L.L.C.", "city": "Abu Dhabi", "api": "Exposed SCADA/HMI Interfaces", "count": 6, "ips": ["94.140.0.214", "94.140.0.59", "94.140.0.6", "94.140.0.60", "94.140.0.61", "94.140.0.70"], "domains": []}, {"id": 28, "lat": 25.07725, "lng": 55.30927, "org": "SAP SE", "city": "Dubai", "api": "Exposed SCADA/HMI Interfaces", "count": 2, "ips": ["130.214.80.205", "130.214.81.189"], "domains": ["ondemand.com"]}, {"id": 29, "lat": 25.07725, "lng": 55.30927, "org": "Oracle Corporation", "city": "Dubai", "api": "Exposed SCADA/HMI Interfaces", "count": 34, "ips": ["129.148.212.32", "129.148.212.62", "129.148.214.197", "129.148.220.176", "129.148.220.52", "129.148.221.183", "129.148.222.98", "129.148.223.19", "139.185.45.137", "139.185.47.35", "139.185.49.130", "139.185.52.155", "139.185.52.24", "139.185.56.112", "139.185.57.70", "141.145.145.25", "141.145.153.188", "141.145.153.89", "141.145.153.97", "141.145.157.130"], "domains": ["americana-food.com", "aswat.co", "aterosolutions.com", "baysquarelaundry.com", "capitalnative.com"]}, {"id": 30, "lat": 24.30978, "lng": 54.62944, "org": "Emirates Telecommunications Corporation", "city": "Bani Yas City", "api": "Exposed SCADA/HMI Interfaces", "count": 15, "ips": ["176.205.201.7", "176.205.202.19", "2.50.158.180", "2.50.193.0", "2.50.205.42", "217.164.243.123", "31.215.28.160", "92.96.58.188", "94.59.155.13", "94.59.155.146", "94.59.165.29", "94.59.189.94", "94.59.43.36", "94.59.48.12", "94.59.88.18"], "domains": ["alshamil.net.ae", "draytek.com"]}, {"id": 31, "lat": 25.11641, "lng": 56.34141, "org": "EMIRATES TELECOMMUNICATIONS GROUP COMPANY (ETISALAT GROUP) PJSC", "city": "Al Fujairah City", "api": "Exposed SCADA/HMI Interfaces", "count": 1, "ips": ["5.195.173.215"], "domains": []}, {"id": 32, "lat": 25.33737, "lng": 55.41206, "org": "EMIRATES TELECOMMUNICATIONS GROUP COMPANY (ETISALAT GROUP) PJSC", "city": "Sharjah", "api": "Exposed SCADA/HMI Interfaces", "count": 4, "ips": ["213.42.133.166", "5.195.26.22", "5.195.29.225", "94.56.44.36"], "domains": ["leodar-trackandtrace.com", "moe.gov.ae"]}, {"id": 33, "lat": 25.07725, "lng": 55.30927, "org": "Alibaba Cloud - AE(Dubai)", "city": "Dubai", "api": "Exposed SCADA/HMI Interfaces", "count": 31, "ips": ["47.91.100.129", "47.91.100.138", "47.91.100.151", "47.91.100.153", "47.91.100.159", "47.91.100.173", "47.91.100.188", "47.91.100.230", "47.91.100.233", "47.91.101.67", "47.91.104.110", "47.91.104.193", "47.91.106.167", "47.91.107.139", "47.91.109.17", "47.91.110.147", "47.91.110.148", "47.91.110.221", "47.91.115.175", "47.91.115.179"], "domains": ["a2rsolutions.com", "aliyuncs.com", "autoglm.ai", "ctclouds.com"]}, {"id": 34, "lat": 25.11641, "lng": 56.34141, "org": "MEDIANOVA INTERNET HIZMETLERI VE TICARET ANONIM SIRKETI", "city": "Al Fujairah City", "api": "Exposed SCADA/HMI Interfaces", "count": 1, "ips": ["185.21.180.212"], "domains": []}, {"id": 35, "lat": 25.07725, "lng": 55.30927, "org": "VPN Consumer Dubai, United Arab Emirates", "city": "Dubai", "api": "Exposed SCADA/HMI Interfaces", "count": 2, "ips": ["170.62.239.170", "170.62.239.204"], "domains": []}, {"id": 36, "lat": 25.07725, "lng": 55.30927, "org": "M247 LTD, Doha Infrastructure", "city": "Dubai", "api": "Exposed SCADA/HMI Interfaces", "count": 4, "ips": ["95.181.234.10", "95.181.234.12", "95.181.234.13", "95.181.234.142"], "domains": []}, {"id": 37, "lat": 24.43208, "lng": 54.61582, "org": "Oracle Corporation", "city": "Masdar City", "api": "Exposed SCADA/HMI Interfaces", "count": 7, "ips": ["129.149.48.77", "129.149.49.138", "129.149.50.118", "129.151.129.216", "129.151.130.205", "129.151.140.25", "129.151.149.235"], "domains": ["absolute.cards", "oraclecloud.com"]}, {"id": 38, "lat": 25.78953, "lng": 55.9432, "org": "Emirates Telecommunications Corporation", "city": "Ras Al Khaimah City", "api": "Exposed SCADA/HMI Interfaces", "count": 9, "ips": ["5.193.152.2", "5.193.181.27", "5.193.185.17", "5.193.220.218", "5.193.220.65", "5.193.244.236", "5.194.176.151", "86.96.87.116", "86.97.217.224"], "domains": ["alshamil.net.ae"]}, {"id": 39, "lat": 25.07725, "lng": 55.30927, "org": "3NT SOLUTIONS LLP", "city": "Dubai", "api": "Exposed SCADA/HMI Interfaces", "count": 2, "ips": ["38.180.11.197", "38.180.27.192"], "domains": []}, {"id": 40, "lat": 25.07725, "lng": 55.30927, "org": "Palo Alto Networks, Inc", "city": "Dubai", "api": "Exposed SCADA/HMI Interfaces", "count": 2, "ips": ["130.41.74.203", "130.41.74.234"], "domains": []}, {"id": 41, "lat": 25.00255, "lng": 55.10811, "org": "Emirates Telecommunications Corporation", "city": "Jebel Ali", "api": "Exposed SCADA/HMI Interfaces", "count": 6, "ips": ["2.51.108.16", "2.51.203.87", "83.110.151.41", "86.98.61.159", "86.99.170.66", "86.99.41.166"], "domains": ["alshamil.net.ae", "draytek.com", "gerritotto.com"]}, {"id": 42, "lat": 24.45118, "lng": 54.39696, "org": "Emirates Center for Strategic Research", "city": "Abu Dhabi", "api": "Exposed SCADA/HMI Interfaces", "count": 1, "ips": ["194.170.28.222"], "domains": ["ecssr.ae"]}, {"id": 43, "lat": 25.26038, "lng": 55.29891, "org": "EMIRATES TELECOMMUNICATIONS GROUP COMPANY (ETISALAT GROUP) PJSC", "city": "Bur Dubai", "api": "Exposed SCADA/HMI Interfaces", "count": 1, "ips": ["151.253.24.162"], "domains": []}, {"id": 44, "lat": 25.11641, "lng": 56.34141, "org": "Emirates Telecommunications Corporation", "city": "Al Fujairah City", "api": "Exposed SCADA/HMI Interfaces", "count": 5, "ips": ["2.51.247.41", "2.51.250.227", "217.165.223.12", "83.110.101.162", "86.97.43.216"], "domains": ["alshamil.net.ae"]}, {"id": 45, "lat": 25.07725, "lng": 55.30927, "org": "ITGLOBAL COM DMCC", "city": "Dubai", "api": "Exposed SCADA/HMI Interfaces", "count": 2, "ips": ["185.209.49.166", "185.234.10.102"], "domains": ["dak-g.com", "goldappleme.com"]}, {"id": 46, "lat": 25.07725, "lng": 55.30927, "org": "M247 Europe - Dubai Infrastructure", "city": "Dubai", "api": "Exposed SCADA/HMI Interfaces", "count": 4, "ips": ["146.70.131.108", "146.70.131.109", "146.70.131.115", "146.70.155.161"], "domains": []}, {"id": 47, "lat": 25.07725, "lng": 55.30927, "org": "Fiber Logic Inc.", "city": "Dubai", "api": "Exposed SCADA/HMI Interfaces", "count": 1, "ips": ["162.213.25.36"], "domains": ["16clouds.com"]}, {"id": 48, "lat": 25.07725, "lng": 55.30927, "org": "Buzinessware FZCO", "city": "Dubai", "api": "Exposed SCADA/HMI Interfaces", "count": 2, "ips": ["185.241.124.133", "89.35.193.29"], "domains": ["buzinesscloud.com", "nationalambulance.ae"]}, {"id": 49, "lat": 24.45118, "lng": 54.39696, "org": "G42 CLOUD TECHNOLOGY L.L.C.", "city": "Abu Dhabi", "api": "Exposed SCADA/HMI Interfaces", "count": 5, "ips": ["188.116.28.219", "188.116.28.227", "188.116.28.247", "77.242.240.5", "77.242.240.8"], "domains": ["g42cloud.com"]}, {"id": 50, "lat": 24.45118, "lng": 54.39696, "org": "NEW YORK UNIVERSITY ABU DHABI - ABU DHABI Foreign Branch-USA", "city": "Abu Dhabi", "api": "Exposed SCADA/HMI Interfaces", "count": 2, "ips": ["91.230.41.210", "91.230.41.212"], "domains": ["nyu.edu"]}, {"id": 51, "lat": 24.45118, "lng": 54.39696, "org": "FIRST ABU DHABI BANK P.J.S.C", "city": "Abu Dhabi", "api": "Exposed SCADA/HMI Interfaces", "count": 2, "ips": ["81.16.132.141", "81.16.133.135"], "domains": ["bankfab.com"]}, {"id": 52, "lat": 25.55073, "lng": 55.68619, "org": "Emirates Telecommunications Corporation", "city": "Al Raafah", "api": "Exposed SCADA/HMI Interfaces", "count": 4, "ips": ["217.165.41.113", "86.97.104.27", "86.97.105.223", "86.97.237.185"], "domains": ["alshamil.net.ae"]}, {"id": 53, "lat": 25.1351, "lng": 55.2273, "org": "NetConnect Innovations LLC", "city": "Dubai", "api": "Exposed SCADA/HMI Interfaces", "count": 5, "ips": ["138.128.224.144", "138.128.225.159", "138.128.225.185", "138.128.225.198", "138.128.225.217"], "domains": []}, {"id": 54, "lat": 24.34794, "lng": 54.55368, "org": "Emirates Telecommunications Corporation", "city": "Mohammed Bin Zayed City", "api": "Exposed SCADA/HMI Interfaces", "count": 7, "ips": ["2.50.173.151", "2.50.208.221", "2.50.223.144", "2.50.248.145", "2.50.253.51", "2.50.255.101", "92.99.79.216"], "domains": ["alshamil.net.ae", "green-uae.com"]}, {"id": 55, "lat": 24.42588, "lng": 54.605, "org": "Emirates Telecommunications Corporation", "city": "Khalifah A City", "api": "Exposed SCADA/HMI Interfaces", "count": 5, "ips": ["176.205.230.168", "217.164.230.218", "31.215.135.62", "5.194.158.151", "92.96.206.218"], "domains": ["alshamil.net.ae"]}, {"id": 56, "lat": 24.35893, "lng": 54.48267, "org": "Emirates Telecommunications Corporation", "city": "Musaffah", "api": "Exposed SCADA/HMI Interfaces", "count": 3, "ips": ["86.97.9.99", "86.98.157.223", "92.96.181.175"], "domains": ["alshamil.net.ae"]}, {"id": 57, "lat": 25.07725, "lng": 55.30927, "org": "Safa Itc General Trading LLC", "city": "Dubai", "api": "Exposed SCADA/HMI Interfaces", "count": 1, "ips": ["94.200.89.250"], "domains": ["safa-telecom.com"]}, {"id": 58, "lat": 25.1351, "lng": 55.2273, "org": "Zain Omantel International FZ-LLC", "city": "Dubai", "api": "Exposed SCADA/HMI Interfaces", "count": 2, "ips": ["185.200.126.77", "185.200.126.87"], "domains": ["googleusercontent.com", "xn--ngstr-lra8j.com", "ytimg.com"]}, {"id": 59, "lat": 24.45118, "lng": 54.39696, "org": "Emirates Integrated Telecommunications Company PJSC (EITC-DU)", "city": "Abu Dhabi", "api": "Exposed SCADA/HMI Interfaces", "count": 1, "ips": ["94.202.209.29"], "domains": []}, {"id": 60, "lat": 25.11641, "lng": 56.34141, "org": "Telecommunications Kish Company TKC HQ", "city": "Al Fujairah City", "api": "Exposed SCADA/HMI Interfaces", "count": 1, "ips": ["195.229.6.167"], "domains": []}, {"id": 61, "lat": 25.07725, "lng": 55.30927, "org": "Zenlayer Inc", "city": "Dubai", "api": "Exposed SCADA/HMI Interfaces", "count": 3, "ips": ["192.254.88.242", "98.98.238.119", "98.98.240.94"], "domains": []}, {"id": 62, "lat": 25.7091, "lng": 55.80772, "org": "Emirates Telecommunications Corporation", "city": "Al Jazīrah al Ḩamrā’", "api": "Exposed SCADA/HMI Interfaces", "count": 2, "ips": ["86.98.194.150", "86.98.195.236"], "domains": ["alshamil.net.ae"]}, {"id": 63, "lat": 25.07725, "lng": 55.30927, "org": "EDIS INFRASTRUCTURE IN UAE", "city": "Dubai", "api": "Exposed SCADA/HMI Interfaces", "count": 1, "ips": ["91.132.93.215"], "domains": ["91.in-addr.arpa"]}, {"id": 64, "lat": 25.07725, "lng": 55.30927, "org": "General Motors", "city": "Dubai", "api": "Exposed SCADA/HMI Interfaces", "count": 1, "ips": ["83.111.90.234"], "domains": []}, {"id": 65, "lat": 24.45118, "lng": 54.39696, "org": "EMIRATES TELECOMMUNICATIONS GROUP COMPANY (ETISALAT GROUP) PJSC", "city": "Abu Dhabi", "api": "Exposed SCADA/HMI Interfaces", "count": 5, "ips": ["151.253.34.34", "217.165.173.70", "86.96.199.2", "86.96.202.104", "86.98.118.136"], "domains": ["alshamil.net.ae"]}, {"id": 66, "lat": 25.11641, "lng": 56.34141, "org": "Google LLC", "city": "Al Fujairah City", "api": "Exposed SCADA/HMI Interfaces", "count": 1, "ips": ["142.250.181.148"], "domains": ["1e100.net"]}, {"id": 67, "lat": 25.1351, "lng": 55.2273, "org": "SKYDIGITAL TELECOM LTD", "city": "Dubai", "api": "Exposed SCADA/HMI Interfaces", "count": 2, "ips": ["154.197.80.158", "154.197.80.95"], "domains": []}, {"id": 68, "lat": 25.26038, "lng": 55.29891, "org": "Emirates Telecommunications Corporation", "city": "Bur Dubai", "api": "Exposed SCADA/HMI Interfaces", "count": 7, "ips": ["2.49.190.207", "2.50.56.118", "217.165.119.53", "86.98.7.203", "86.98.82.162", "92.97.252.157", "92.97.67.229"], "domains": ["alshamil.net.ae", "draytek.com"]}, {"id": 69, "lat": 24.19167, "lng": 55.76056, "org": "The United Arab Emirates University", "city": "Al Ain City", "api": "Exposed SCADA/HMI Interfaces", "count": 2, "ips": ["178.250.249.154", "178.250.253.105"], "domains": ["uaeu.ac.ae"]}, {"id": 70, "lat": 25.28812, "lng": 55.88157, "org": "IWAN Base Station", "city": "Adh Dhayd", "api": "Exposed SCADA/HMI Interfaces", "count": 1, "ips": ["217.164.198.205"], "domains": ["alshamil.net.ae"]}, {"id": 71, "lat": 25.16744, "lng": 55.40708, "org": "Emirates Telecommunications Corporation", "city": "Warīsān", "api": "Exposed SCADA/HMI Interfaces", "count": 3, "ips": ["5.194.150.99", "86.99.189.94", "92.98.31.86"], "domains": ["alshamil.net.ae", "asus.com", "asusap.com", "asusap.net", "asusnetwork.net"]}, {"id": 72, "lat": 25.07725, "lng": 55.30927, "org": "M247 LTD, Riyadh Infrastructure", "city": "Dubai", "api": "Exposed SCADA/HMI Interfaces", "count": 43, "ips": ["95.181.235.10", "95.181.235.11", "95.181.235.12", "95.181.235.13", "95.181.235.132", "95.181.235.14", "95.181.235.146", "95.181.235.147", "95.181.235.148", "95.181.235.149", "95.181.235.15", "95.181.235.150", "95.181.235.151", "95.181.235.152", "95.181.235.153", "95.181.235.154", "95.181.235.155", "95.181.235.156", "95.181.235.157", "95.181.235.158"], "domains": []}, {"id": 73, "lat": 25.1351, "lng": 55.2273, "org": "IP MARKET - FZCO", "city": "Dubai", "api": "Exposed SCADA/HMI Interfaces", "count": 5, "ips": ["185.37.192.133", "194.79.60.251", "194.79.61.104", "194.79.61.180", "194.79.62.19"], "domains": []}, {"id": 74, "lat": 25.16744, "lng": 55.40708, "org": "", "city": "Warīsān", "api": "Exposed SCADA/HMI Interfaces", "count": 1, "ips": ["151.242.77.147"], "domains": []}, {"id": 75, "lat": 25.11641, "lng": 56.34141, "org": "CDNetworks Inc", "city": "Al Fujairah City", "api": "Exposed SCADA/HMI Interfaces", "count": 3, "ips": ["163.171.178.135", "163.171.178.201", "163.171.178.71"], "domains": []}, {"id": 76, "lat": 25.07725, "lng": 55.30927, "org": "National Crisis and  Emergency Management Authority", "city": "Dubai", "api": "Exposed SCADA/HMI Interfaces", "count": 1, "ips": ["83.111.109.106"], "domains": []}, {"id": 77, "lat": 25.07725, "lng": 55.30927, "org": "FASTLY", "city": "Dubai", "api": "Exposed SCADA/HMI Interfaces", "count": 1, "ips": ["146.75.65.186"], "domains": ["fastly.net"]}, {"id": 78, "lat": 25.07725, "lng": 55.30927, "org": "Asia Pacific Network Information Center, Pty. Ltd.", "city": "Dubai", "api": "Exposed SCADA/HMI Interfaces", "count": 1, "ips": ["43.152.32.119"], "domains": []}, {"id": 79, "lat": 24.34794, "lng": 54.55368, "org": "Barjeel Securities LLC", "city": "Mohammed Bin Zayed City", "api": "Exposed SCADA/HMI Interfaces", "count": 1, "ips": ["92.96.164.27"], "domains": ["alshamil.net.ae"]}, {"id": 80, "lat": 25.1351, "lng": 55.2273, "org": "M247 Europe SRL", "city": "Dubai", "api": "Exposed SCADA/HMI Interfaces", "count": 2, "ips": ["193.187.151.148", "193.187.151.44"], "domains": ["apple.com", "vk-id.me"]}, {"id": 81, "lat": 25.07725, "lng": 55.30927, "org": "", "city": "Dubai", "api": "Exposed SCADA/HMI Interfaces", "count": 2, "ips": ["151.243.87.158", "151.243.87.94"], "domains": []}, {"id": 82, "lat": 25.33132, "lng": 56.34199, "org": "Emirates Telecommunications Corporation", "city": "Khawr Fakkān", "api": "Exposed SCADA/HMI Interfaces", "count": 1, "ips": ["92.98.128.169"], "domains": ["alshamil.net.ae"]}, {"id": 83, "lat": 25.40177, "lng": 55.47878, "org": "Emirates Telecommunications Corporation", "city": "Ajman City", "api": "Exposed SCADA/HMI Interfaces", "count": 7, "ips": ["5.193.110.151", "5.193.116.17", "5.193.119.77", "83.110.159.60", "92.96.131.206", "92.99.175.152", "92.99.28.245"], "domains": ["alshamil.net.ae"]}, {"id": 84, "lat": 25.07725, "lng": 55.30927, "org": "Internet Utilities Europe and Asia Limited", "city": "Dubai", "api": "Exposed SCADA/HMI Interfaces", "count": 1, "ips": ["31.56.119.139"], "domains": []}, {"id": 85, "lat": 24.19167, "lng": 55.76056, "org": "Emirates Telecommunications Corporation", "city": "Al Ain City", "api": "Exposed SCADA/HMI Interfaces", "count": 13, "ips": ["176.205.114.138", "176.205.172.229", "176.205.211.171", "217.164.4.30", "217.164.83.194", "31.215.156.76", "31.215.22.54", "86.97.27.205", "94.59.111.66", "94.59.117.62", "94.59.184.131", "94.59.61.165", "94.59.96.222"], "domains": ["alshamil.net.ae"]}, {"id": 86, "lat": 25.07725, "lng": 55.30927, "org": "Abu Dhabi University LLC", "city": "Dubai", "api": "Exposed SCADA/HMI Interfaces", "count": 1, "ips": ["91.231.11.15"], "domains": ["adu.ac.ae"]}, {"id": 87, "lat": 25.07725, "lng": 55.30927, "org": "Microsoft Limited", "city": "Dubai", "api": "Exposed SCADA/HMI Interfaces", "count": 2, "ips": ["172.164.226.107", "172.164.242.9"], "domains": ["atbpay.me", "orva.app"]}, {"id": 88, "lat": 24.35893, "lng": 54.48267, "org": "EMIRATES TELECOMMUNICATIONS GROUP COMPANY (ETISALAT GROUP) PJSC", "city": "Musaffah", "api": "Exposed SCADA/HMI Interfaces", "count": 1, "ips": ["5.195.111.80"], "domains": []}, {"id": 89, "lat": 25.1351, "lng": 55.2273, "org": "Cloudflare London, LLC", "city": "Dubai", "api": "Exposed SCADA/HMI Interfaces", "count": 4, "ips": ["77.232.140.196", "77.232.140.253", "77.232.140.28", "77.232.140.57"], "domains": []}, {"id": 90, "lat": 24.39268, "lng": 54.70779, "org": "Emirates Telecommunications Corporation", "city": "Al Shamkhah City", "api": "Exposed SCADA/HMI Interfaces", "count": 2, "ips": ["94.59.178.207", "94.59.254.56"], "domains": ["alshamil.net.ae"]}, {"id": 91, "lat": 25.07725, "lng": 55.30927, "org": "CLOUD HOST TECHNOLOGY LLC", "city": "Dubai", "api": "Exposed SCADA/HMI Interfaces", "count": 1, "ips": ["93.177.125.63"], "domains": ["danwayeme.com", "localhost."]}, {"id": 92, "lat": 24.39268, "lng": 54.70779, "org": "IWAN Base Station", "city": "Al Shamkhah City", "api": "Exposed SCADA/HMI Interfaces", "count": 3, "ips": ["217.164.112.130", "217.164.114.113", "217.164.125.18"], "domains": ["alshamil.net.ae"]}, {"id": 93, "lat": 25.11641, "lng": 56.34141, "org": "Melbikomas UAB", "city": "Al Fujairah City", "api": "Exposed SCADA/HMI Interfaces", "count": 3, "ips": ["89.36.162.154", "89.36.162.30", "95.174.68.48"], "domains": ["ds.", "vm."]}, {"id": 94, "lat": 25.07725, "lng": 55.30927, "org": "Zscaler Switzerland GmbH", "city": "Dubai", "api": "Exposed SCADA/HMI Interfaces", "count": 1, "ips": ["87.58.66.149"], "domains": ["zscloud.net"]}, {"id": 95, "lat": 24.45118, "lng": 54.39696, "org": "Abu Dhabi Digital Authority", "city": "Abu Dhabi", "api": "Exposed SCADA/HMI Interfaces", "count": 1, "ips": ["5.194.252.156"], "domains": ["pension.gov.ae"]}, {"id": 96, "lat": 25.31532, "lng": 55.63211, "org": "Emirates Telecommunications Corporation", "city": "Al Sajaah", "api": "Exposed SCADA/HMI Interfaces", "count": 3, "ips": ["31.215.14.98", "31.215.251.124", "94.59.196.179"], "domains": ["alshamil.net.ae"]}, {"id": 97, "lat": 25.0513, "lng": 56.35422, "org": "EMIRATES TELECOMMUNICATIONS GROUP COMPANY (ETISALAT GROUP) PJSC", "city": "Kalbā", "api": "Exposed SCADA/HMI Interfaces", "count": 1, "ips": ["217.165.179.146"], "domains": ["alshamil.net.ae"]}, {"id": 98, "lat": 24.11028, "lng": 52.73056, "org": "Emirates Telecommunications Corporation", "city": "Ar Ruways", "api": "Exposed SCADA/HMI Interfaces", "count": 1, "ips": ["83.110.146.23"], "domains": ["alshamil.net.ae", "draytek.com"]}, {"id": 99, "lat": 24.45118, "lng": 54.39696, "org": "LES LABORATOIRES SERVIER", "city": "Abu Dhabi", "api": "Exposed SCADA/HMI Interfaces", "count": 1, "ips": ["83.111.71.41"], "domains": []}, {"id": 100, "lat": 25.07725, "lng": 55.30927, "org": "Arabian Ranges POP1", "city": "Dubai", "api": "Exposed SCADA/HMI Interfaces", "count": 2, "ips": ["94.203.46.167", "94.203.46.80"], "domains": ["tax.gov.ae"]}, {"id": 101, "lat": 25.11641, "lng": 56.34141, "org": "Emirates Integrated Telecommunications Company PJSC (EITC-DU)", "city": "Al Fujairah City", "api": "Exposed SCADA/HMI Interfaces", "count": 1, "ips": ["80.227.76.66"], "domains": []}, {"id": 102, "lat": 25.07725, "lng": 55.30927, "org": "ZOHO Corporation B.V", "city": "Dubai", "api": "Exposed SCADA/HMI Interfaces", "count": 3, "ips": ["160.32.184.178", "160.32.186.189", "160.32.188.66"], "domains": ["nila.design", "zoho.ae", "zohopublic.ae"]}, {"id": 103, "lat": 24.19167, "lng": 55.76056, "org": "Havana Cafe", "city": "Al Ain City", "api": "Exposed SCADA/HMI Interfaces", "count": 1, "ips": ["83.110.62.191"], "domains": ["alshamil.net.ae"]}, {"id": 104, "lat": 25.1351, "lng": 55.2273, "org": "Emirates Telecommunications Corporation", "city": "Dubai", "api": "Exposed SCADA/HMI Interfaces", "count": 1, "ips": ["31.215.166.158"], "domains": []}, {"id": 105, "lat": 25.07725, "lng": 55.30927, "org": "Sharjah Customs Department", "city": "Dubai", "api": "Exposed SCADA/HMI Interfaces", "count": 1, "ips": ["195.229.51.16"], "domains": ["sharjahcustoms.gov.ae"]}, {"id": 106, "lat": 24.45118, "lng": 54.39696, "org": "Emirates Internet", "city": "Abu Dhabi", "api": "Exposed SCADA/HMI Interfaces", "count": 1, "ips": ["217.164.209.234"], "domains": ["alshamil.net.ae"]}, {"id": 107, "lat": 25.07725, "lng": 55.30927, "org": "Dubai Marina POP1", "city": "Dubai", "api": "Exposed SCADA/HMI Interfaces", "count": 2, "ips": ["94.203.132.33", "94.203.132.56"], "domains": ["blorify.com"]}, {"id": 108, "lat": 25.07725, "lng": 55.30927, "org": "DANATA EMIRATES GROUP", "city": "Dubai", "api": "Exposed SCADA/HMI Interfaces", "count": 1, "ips": ["194.170.249.254"], "domains": []}, {"id": 109, "lat": 25.11641, "lng": 56.34141, "org": "RCS Technologies FZE LLC", "city": "Al Fujairah City", "api": "Exposed SCADA/HMI Interfaces", "count": 1, "ips": ["188.208.110.225"], "domains": []}, {"id": 110, "lat": 25.07725, "lng": 55.30927, "org": "Amazon Data Services NoVa", "city": "Dubai", "api": "Exposed SCADA/HMI Interfaces", "count": 1, "ips": ["3.5.50.50"], "domains": []}, {"id": 111, "lat": 25.40177, "lng": 55.47878, "org": "Emirates Integrated Telecommunications Company PJSC", "city": "Ajman City", "api": "Exposed SCADA/HMI Interfaces", "count": 1, "ips": ["94.207.96.213"], "domains": []}, {"id": 112, "lat": 25.31532, "lng": 55.63211, "org": "TOP SPEED INTERNET SERVICE", "city": "Al Sajaah", "api": "Exposed SCADA/HMI Interfaces", "count": 1, "ips": ["83.110.169.191"], "domains": ["alshamil.net.ae"]}, {"id": 113, "lat": 25.07725, "lng": 55.30927, "org": "Kaopu Cloud HK Limited", "city": "Dubai", "api": "Exposed SCADA/HMI Interfaces", "count": 3, "ips": ["38.54.75.126", "38.54.8.160", "38.60.138.15"], "domains": []}, {"id": 114, "lat": 25.31532, "lng": 55.63211, "org": "Al Buteena Internet", "city": "Al Sajaah", "api": "Exposed SCADA/HMI Interfaces", "count": 1, "ips": ["83.110.119.224"], "domains": ["alshamil.net.ae"]}, {"id": 115, "lat": 25.11641, "lng": 56.34141, "org": "BlueVPS OU", "city": "Al Fujairah City", "api": "Exposed SCADA/HMI Interfaces", "count": 1, "ips": ["45.86.228.253"], "domains": []}, {"id": 116, "lat": 25.07725, "lng": 55.30927, "org": "Twinty Four Seven Internet", "city": "Dubai", "api": "Exposed SCADA/HMI Interfaces", "count": 1, "ips": ["83.110.168.163"], "domains": ["alshamil.net.ae"]}, {"id": 117, "lat": 25.0513, "lng": 56.35422, "org": "Games Network", "city": "Kalbā", "api": "Exposed SCADA/HMI Interfaces", "count": 1, "ips": ["86.98.121.85"], "domains": ["alshamil.net.ae"]}, {"id": 118, "lat": 24.19167, "lng": 55.76056, "org": "EMIRATES TELECOMMUNICATIONS GROUP COMPANY (ETISALAT GROUP) PJSC", "city": "Al Ain City", "api": "Exposed SCADA/HMI Interfaces", "count": 1, "ips": ["217.165.181.139"], "domains": ["alshamil.net.ae"]}, {"id": 119, "lat": 25.07725, "lng": 55.30927, "org": "kangaroo intenet", "city": "Dubai", "api": "Exposed SCADA/HMI Interfaces", "count": 1, "ips": ["83.110.183.115"], "domains": ["alshamil.net.ae"]}, {"id": 120, "lat": 24.45118, "lng": 54.39696, "org": "Oracle Svenska AB", "city": "Abu Dhabi", "api": "Exposed SCADA/HMI Interfaces", "count": 1, "ips": ["84.8.178.247"], "domains": ["oraclerealm29.com"]}, {"id": 121, "lat": 25.07725, "lng": 55.30927, "org": "Somali Wireless", "city": "Dubai", "api": "Exposed SCADA/HMI Interfaces", "count": 1, "ips": ["154.72.25.182"], "domains": []}, {"id": 122, "lat": 25.07725, "lng": 55.30927, "org": "ZainTECH CloudHub FZ-LLC.", "city": "Dubai", "api": "Exposed SCADA/HMI Interfaces", "count": 1, "ips": ["45.83.96.61"], "domains": ["te-services.ae"]}, {"id": 123, "lat": 25.0513, "lng": 56.35422, "org": "Emirates Telecommunications Corporation", "city": "Kalbā", "api": "Exposed SCADA/HMI Interfaces", "count": 1, "ips": ["83.110.106.68"], "domains": ["alshamil.net.ae"]}, {"id": 124, "lat": 25.1351, "lng": 55.2273, "org": "Emirates National Oil Co. Ltd. (ENOC) LLC", "city": "Dubai", "api": "Exposed SCADA/HMI Interfaces", "count": 1, "ips": ["185.225.195.79"], "domains": []}, {"id": 125, "lat": 25.11641, "lng": 56.34141, "org": "Oneprovider.com - Dubai Infrastructure", "city": "Al Fujairah City", "api": "Exposed SCADA/HMI Interfaces", "count": 1, "ips": ["147.78.0.109"], "domains": []}, {"id": 126, "lat": 25.1351, "lng": 55.2273, "org": "Qrator Technologies FZ-LLC", "city": "Dubai", "api": "Exposed SCADA/HMI Interfaces", "count": 3, "ips": ["46.174.142.103", "46.174.143.143", "46.174.143.86"], "domains": ["jmcpayservices.com", "slotgames777.bar"]}, {"id": 127, "lat": 25.07725, "lng": 55.30927, "org": "EDGENEXT LEGEND DYNASTY PTE.LTD", "city": "Dubai", "api": "Exposed SCADA/HMI Interfaces", "count": 1, "ips": ["156.225.107.131"], "domains": []}, {"id": 128, "lat": 25.07725, "lng": 55.30927, "org": "ACEVILLE PTE.LTD.", "city": "Dubai", "api": "Exposed SCADA/HMI Interfaces", "count": 1, "ips": ["43.175.25.106"], "domains": ["2144.cn", "2144.com", "4399.com", "4399pk.com", "5054399.com"]}, {"id": 129, "lat": 24.43208, "lng": 54.61582, "org": "Oracle Svenska AB", "city": "Masdar City", "api": "Exposed SCADA/HMI Interfaces", "count": 2, "ips": ["84.8.0.144", "84.8.4.22"], "domains": ["oraclerealm26.com"]}, {"id": 130, "lat": 25.07725, "lng": 55.30927, "org": "Zscaler Dubai", "city": "Dubai", "api": "Exposed SCADA/HMI Interfaces", "count": 1, "ips": ["147.161.161.140"], "domains": ["zscloud.net"]}, {"id": 131, "lat": 25.07725, "lng": 55.30927, "org": "3nt solutions LLP", "city": "Dubai", "api": "Exposed SCADA/HMI Interfaces", "count": 1, "ips": ["176.97.67.80"], "domains": []}, {"id": 132, "lat": 25.07725, "lng": 55.30927, "org": "Alibaba Cloud LLC", "city": "Dubai", "api": "Exposed SCADA/HMI Interfaces", "count": 1, "ips": ["163.181.219.143"], "domains": []}, {"id": 133, "lat": 25.07725, "lng": 55.30927, "org": "ZOI - Zain Omantel International", "city": "Dubai", "api": "Exposed SCADA/HMI Interfaces", "count": 1, "ips": ["151.248.104.37"], "domains": []}, {"id": 134, "lat": 25.07725, "lng": 55.30927, "org": "LIVAPROXY YAZILIM TICARET LIMITED SIRKETI", "city": "Dubai", "api": "Exposed SCADA/HMI Interfaces", "count": 1, "ips": ["85.237.211.176"], "domains": []}, {"id": 135, "lat": 25.07725, "lng": 55.30927, "org": "RADWARE INC.", "city": "Dubai", "api": "Exposed SCADA/HMI Interfaces", "count": 1, "ips": ["66.22.104.42"], "domains": []}, {"id": 136, "lat": 25.07725, "lng": 55.30927, "org": "Smart Dubai Government Establishment", "city": "Dubai", "api": "Exposed SCADA/HMI Interfaces", "count": 1, "ips": ["213.42.54.11"], "domains": []}, {"id": 137, "lat": 25.07725, "lng": 55.30927, "org": "Cisco OpenDNS LLC", "city": "Dubai", "api": "Exposed SCADA/HMI Interfaces", "count": 1, "ips": ["146.112.14.69"], "domains": []}, {"id": 138, "lat": 25.11641, "lng": 56.34141, "org": "Zenlayer Inc", "city": "Al Fujairah City", "api": "Exposed SCADA/HMI Interfaces", "count": 1, "ips": ["128.1.254.57"], "domains": []}, {"id": 139, "lat": 25.07725, "lng": 55.30927, "org": "Data Hub Integrated Solutions Moro LLC", "city": "Dubai", "api": "Exposed SCADA/HMI Interfaces", "count": 1, "ips": ["185.238.181.118"], "domains": ["mindrockets.app"]}, {"id": 140, "lat": 25.33737, "lng": 55.41206, "org": "Emirates Telecommunications Corporation", "city": "Sharjah", "api": "Exposed PLC/RTU Protocols", "count": 67, "ips": ["109.177.180.47", "109.177.193.130", "109.177.193.161", "109.177.197.67", "109.177.198.115", "109.177.200.98", "109.177.203.3", "109.177.207.28", "2.49.138.81", "2.49.138.92", "2.49.203.14", "2.49.203.201", "2.49.49.80", "2.49.59.179", "2.49.61.150", "2.50.101.169", "2.50.14.184", "2.50.27.242", "2.50.31.54", "2.50.98.168"], "domains": ["alshamil.net.ae"]}, {"id": 141, "lat": 24.30978, "lng": 54.62944, "org": "Emirates Telecommunications Corporation", "city": "Bani Yas City", "api": "Exposed PLC/RTU Protocols", "count": 21, "ips": ["176.205.201.7", "176.205.202.149", "176.205.202.19", "176.205.206.171", "2.50.193.0", "217.164.241.73", "217.164.243.123", "31.215.172.43", "31.215.28.160", "31.215.28.222", "92.96.58.188", "94.59.155.13", "94.59.155.146", "94.59.165.29", "94.59.189.94", "94.59.43.36", "94.59.47.196", "94.59.48.12", "94.59.48.80", "94.59.88.18"], "domains": ["alshamil.net.ae"]}, {"id": 142, "lat": 24.45118, "lng": 54.39696, "org": "Emirates Telecommunications Corporation", "city": "Abu Dhabi", "api": "Exposed PLC/RTU Protocols", "count": 63, "ips": ["176.205.100.121", "176.205.16.10", "176.205.179.183", "2.50.140.76", "2.50.158.161", "2.50.74.148", "217.164.110.196", "217.164.13.7", "217.164.179.226", "217.164.180.34", "217.164.246.11", "217.164.39.131", "217.164.43.15", "217.164.58.32", "217.164.59.188", "217.164.9.162", "217.165.108.71", "31.215.104.111", "31.215.137.21", "31.215.140.133"], "domains": ["alshamil.net.ae"]}, {"id": 143, "lat": 25.07725, "lng": 55.30927, "org": "Oracle Corporation", "city": "Dubai", "api": "Exposed PLC/RTU Protocols", "count": 130, "ips": ["139.185.32.234", "139.185.38.39", "139.185.39.117", "139.185.40.225", "139.185.41.32", "139.185.44.76", "139.185.50.113", "139.185.51.172", "139.185.52.107", "139.185.54.151", "139.185.56.115", "139.185.57.152", "139.185.57.174", "139.185.57.40", "139.185.57.62", "139.185.57.70", "139.185.59.37", "139.185.61.136", "139.185.61.164", "141.145.144.116"], "domains": []}, {"id": 144, "lat": 25.1351, "lng": 55.2273, "org": "Incapsula Inc", "city": "Dubai", "api": "Exposed PLC/RTU Protocols", "count": 96, "ips": ["45.64.64.107", "45.64.64.119", "45.64.64.13", "45.64.64.135", "45.64.64.148", "45.64.64.151", "45.64.64.152", "45.64.64.156", "45.64.64.157", "45.64.64.159", "45.64.64.172", "45.64.64.218", "45.64.64.229", "45.64.64.230", "45.64.64.30", "45.64.64.35", "45.64.64.38", "45.64.64.4", "45.64.64.5", "45.64.64.50"], "domains": []}, {"id": 145, "lat": 25.07725, "lng": 55.30927, "org": "M247 LTD, Riyadh Infrastructure", "city": "Dubai", "api": "Exposed PLC/RTU Protocols", "count": 42, "ips": ["95.181.235.10", "95.181.235.11", "95.181.235.12", "95.181.235.13", "95.181.235.14", "95.181.235.146", "95.181.235.147", "95.181.235.148", "95.181.235.149", "95.181.235.15", "95.181.235.150", "95.181.235.151", "95.181.235.152", "95.181.235.153", "95.181.235.154", "95.181.235.155", "95.181.235.156", "95.181.235.157", "95.181.235.158", "95.181.235.16"], "domains": []}, {"id": 146, "lat": 24.45118, "lng": 54.39696, "org": "NEW YORK UNIVERSITY ABU DHABI - ABU DHABI Foreign Branch-USA", "city": "Abu Dhabi", "api": "Exposed PLC/RTU Protocols", "count": 1, "ips": ["91.230.41.210"], "domains": []}, {"id": 147, "lat": 25.07725, "lng": 55.30927, "org": "Asia Pacific Network Information Center, Pty. Ltd.", "city": "Dubai", "api": "Exposed PLC/RTU Protocols", "count": 4, "ips": ["43.152.32.119", "43.152.32.153", "43.152.32.167", "43.152.32.86"], "domains": []}, {"id": 148, "lat": 24.34794, "lng": 54.55368, "org": "Barjeel Securities LLC", "city": "Mohammed Bin Zayed City", "api": "Exposed PLC/RTU Protocols", "count": 2, "ips": ["92.96.164.27", "92.96.169.255"], "domains": ["alshamil.net.ae"]}, {"id": 149, "lat": 25.07725, "lng": 55.30927, "org": "Amazon Data Services UAE", "city": "Dubai", "api": "Exposed PLC/RTU Protocols", "count": 36, "ips": ["158.252.34.206", "158.252.81.163", "158.252.81.255", "158.252.83.160", "158.252.93.55", "158.252.95.51", "3.28.137.22", "3.28.185.112", "3.28.201.25", "3.28.204.246", "3.28.207.105", "3.28.253.222", "3.28.39.241", "3.28.40.230", "3.28.42.249", "3.28.44.177", "3.28.44.43", "3.28.45.21", "3.28.45.225", "3.28.45.34"], "domains": ["amazonaws.com"]}, {"id": 150, "lat": 25.40177, "lng": 55.47878, "org": "Emirates Telecommunications Corporation", "city": "Ajman City", "api": "Exposed PLC/RTU Protocols", "count": 13, "ips": ["109.177.119.9", "109.177.120.94", "109.177.136.172", "109.177.36.114", "109.177.40.26", "5.193.106.180", "5.193.110.151", "5.193.116.17", "5.193.119.77", "92.96.131.206", "92.99.175.152", "92.99.28.245", "94.59.205.239"], "domains": ["alshamil.net.ae"]}, {"id": 151, "lat": 25.07725, "lng": 55.30927, "org": "A100 ROW Inc", "city": "Dubai", "api": "Exposed PLC/RTU Protocols", "count": 12, "ips": ["51.112.187.235", "51.112.229.189", "51.112.230.201", "51.112.252.192", "51.112.252.36", "51.112.253.148", "51.112.42.192", "51.112.44.171", "51.112.47.198", "51.112.49.69", "51.112.50.95", "51.112.54.121"], "domains": ["amazonaws.com"]}, {"id": 152, "lat": 24.19167, "lng": 55.76056, "org": "Emirates Telecommunications Corporation", "city": "Al Ain City", "api": "Exposed PLC/RTU Protocols", "count": 29, "ips": ["176.205.114.138", "176.205.172.229", "176.205.172.65", "176.205.208.108", "176.205.209.198", "176.205.211.171", "176.205.67.40", "217.164.175.80", "217.164.20.77", "217.164.4.30", "217.164.81.200", "217.164.83.194", "217.164.85.252", "31.215.142.33", "31.215.156.76", "31.215.22.54", "31.215.26.9", "31.215.45.71", "86.97.27.205", "92.96.40.38"], "domains": ["alshamil.net.ae"]}, {"id": 153, "lat": 25.07725, "lng": 55.30927, "org": "M247 LTD, Doha Infrastructure", "city": "Dubai", "api": "Exposed PLC/RTU Protocols", "count": 4, "ips": ["95.181.234.10", "95.181.234.12", "95.181.234.13", "95.181.234.7"], "domains": []}, {"id": 154, "lat": 25.07725, "lng": 55.30927, "org": "Hetzner Online GmbH", "city": "Dubai", "api": "Exposed PLC/RTU Protocols", "count": 42, "ips": ["46.224.101.1", "46.224.101.236", "46.224.118.137", "46.224.121.241", "46.224.123.167", "46.224.126.76", "46.224.144.49", "46.224.150.252", "46.224.216.150", "46.224.227.215", "46.224.25.133", "46.224.35.213", "46.224.59.180", "46.224.72.16", "46.224.91.138", "46.225.1.7", "46.225.118.230", "46.225.51.149", "46.225.67.212", "91.98.112.78"], "domains": ["10be.de", "bellfordev.pro", "dunyagrup.net", "futuresplans.com", "fzfkoerf.net"]}, {"id": 155, "lat": 25.07725, "lng": 55.30927, "org": "Alibaba Cloud - AE(Dubai)", "city": "Dubai", "api": "Exposed PLC/RTU Protocols", "count": 31, "ips": ["47.91.100.151", "47.91.100.153", "47.91.100.154", "47.91.100.159", "47.91.100.173", "47.91.100.188", "47.91.100.230", "47.91.100.231", "47.91.100.233", "47.91.104.110", "47.91.104.193", "47.91.105.96", "47.91.106.167", "47.91.107.139", "47.91.107.244", "47.91.109.17", "47.91.110.147", "47.91.110.148", "47.91.110.221", "47.91.115.179"], "domains": []}, {"id": 156, "lat": 25.07725, "lng": 55.30927, "org": "Emirates Telecommunications Corporation", "city": "Dubai", "api": "Exposed PLC/RTU Protocols", "count": 70, "ips": ["176.204.239.211", "176.205.79.1", "2.49.110.53", "2.49.111.82", "2.49.148.59", "2.49.151.44", "2.49.171.224", "2.49.175.114", "2.49.179.163", "2.49.18.70", "2.49.183.23", "2.49.24.35", "2.49.27.93", "2.49.72.244", "2.49.75.157", "2.49.75.237", "2.49.90.229", "2.49.93.182", "2.49.98.106", "2.50.79.80"], "domains": ["alshamil.net.ae", "emirates.net.ae"]}, {"id": 157, "lat": 25.11641, "lng": 56.34141, "org": "CDNetworks", "city": "Al Fujairah City", "api": "Exposed PLC/RTU Protocols", "count": 74, "ips": ["101.79.158.100", "101.79.158.106", "101.79.158.11", "101.79.158.114", "101.79.158.118", "101.79.158.135", "101.79.158.148", "101.79.158.149", "101.79.158.15", "101.79.158.166", "101.79.158.181", "101.79.158.188", "101.79.158.190", "101.79.158.192", "101.79.158.199", "101.79.158.204", "101.79.158.49", "101.79.158.60", "101.79.158.63", "101.79.158.67"], "domains": []}, {"id": 158, "lat": 24.39268, "lng": 54.70779, "org": "IWAN Base Station", "city": "Al Shamkhah City", "api": "Exposed PLC/RTU Protocols", "count": 3, "ips": ["217.164.112.130", "217.164.114.113", "217.164.125.18"], "domains": ["alshamil.net.ae"]}, {"id": 159, "lat": 25.00255, "lng": 55.10811, "org": "Emirates Telecommunications Corporation", "city": "Jebel Ali", "api": "Exposed PLC/RTU Protocols", "count": 6, "ips": ["2.50.65.178", "2.50.67.41", "2.51.108.16", "2.51.203.87", "86.99.170.66", "92.97.23.253"], "domains": ["alshamil.net.ae"]}, {"id": 160, "lat": 24.45118, "lng": 54.39696, "org": "EMIRATES TELECOMMUNICATIONS GROUP COMPANY (ETISALAT GROUP) PJSC", "city": "Abu Dhabi", "api": "Exposed PLC/RTU Protocols", "count": 6, "ips": ["195.229.233.6", "217.165.172.165", "217.165.172.2", "217.165.173.101", "217.165.173.70", "86.98.118.136"], "domains": ["alshamil.net.ae"]}, {"id": 161, "lat": 25.11641, "lng": 56.34141, "org": "Melbikomas UAB", "city": "Al Fujairah City", "api": "Exposed PLC/RTU Protocols", "count": 4, "ips": ["89.36.162.154", "95.174.68.11", "95.174.68.249", "95.174.68.48"], "domains": ["ds.", "vm."]}, {"id": 162, "lat": 25.07725, "lng": 55.30927, "org": "Oracle Svenska AB", "city": "Dubai", "api": "Exposed PLC/RTU Protocols", "count": 12, "ips": ["84.235.240.103", "84.235.240.191", "84.235.241.104", "84.235.241.165", "84.235.241.244", "84.235.242.60", "84.235.243.79", "84.235.246.28", "84.235.246.64", "84.235.247.155", "84.235.248.46", "84.235.250.52"], "domains": []}, {"id": 163, "lat": 25.07725, "lng": 55.30927, "org": "Microsoft Corporation", "city": "Dubai", "api": "Exposed PLC/RTU Protocols", "count": 14, "ips": ["20.196.28.120", "20.216.1.213", "20.233.168.147", "20.233.169.194", "20.233.181.14", "20.233.209.70", "20.233.245.30", "20.46.148.249", "20.46.148.96", "20.46.158.41", "20.47.95.27", "20.74.217.147", "20.74.232.165", "40.125.1.210"], "domains": []}, {"id": 164, "lat": 25.78953, "lng": 55.9432, "org": "Emirates Telecommunications Corporation", "city": "Ras Al Khaimah City", "api": "Exposed PLC/RTU Protocols", "count": 12, "ips": ["5.193.152.2", "5.193.180.208", "5.193.181.27", "5.193.185.17", "5.193.196.97", "5.193.220.218", "5.193.220.65", "5.193.244.236", "5.193.246.174", "5.194.176.151", "86.96.87.116", "86.97.217.224"], "domains": ["alshamil.net.ae"]}, {"id": 165, "lat": 25.31532, "lng": 55.63211, "org": "Emirates Telecommunications Corporation", "city": "Al Sajaah", "api": "Exposed PLC/RTU Protocols", "count": 6, "ips": ["2.51.195.147", "31.215.14.98", "31.215.251.124", "92.98.12.93", "92.98.180.200", "94.59.196.179"], "domains": ["alshamil.net.ae"]}, {"id": 166, "lat": 25.0513, "lng": 56.35422, "org": "EMIRATES TELECOMMUNICATIONS GROUP COMPANY (ETISALAT GROUP) PJSC", "city": "Kalbā", "api": "Exposed PLC/RTU Protocols", "count": 1, "ips": ["217.165.179.146"], "domains": ["alshamil.net.ae"]}, {"id": 167, "lat": 25.07725, "lng": 55.30927, "org": "M247 Europe - Dubai Infrastructure", "city": "Dubai", "api": "Exposed PLC/RTU Protocols", "count": 8, "ips": ["146.70.131.108", "146.70.131.109", "146.70.131.111", "146.70.131.112", "146.70.131.114", "146.70.131.115", "146.70.131.120", "146.70.131.99"], "domains": []}, {"id": 168, "lat": 24.35893, "lng": 54.48267, "org": "Emirates Telecommunications Corporation", "city": "Musaffah", "api": "Exposed PLC/RTU Protocols", "count": 1, "ips": ["86.97.9.99"], "domains": ["alshamil.net.ae"]}, {"id": 169, "lat": 25.07725, "lng": 55.30927, "org": "EMIRATES TELECOMMUNICATIONS GROUP COMPANY (ETISALAT GROUP) PJSC", "city": "Dubai", "api": "Exposed PLC/RTU Protocols", "count": 8, "ips": ["5.195.222.54", "5.195.222.58", "5.195.78.243", "83.110.174.108", "83.111.196.110", "86.98.190.209", "86.98.191.171", "94.56.100.170"], "domains": ["alshamil.net.ae"]}, {"id": 170, "lat": 25.7091, "lng": 55.80772, "org": "Emirates Telecommunications Corporation", "city": "Al Jazīrah al Ḩamrā’", "api": "Exposed PLC/RTU Protocols", "count": 1, "ips": ["86.98.195.236"], "domains": ["alshamil.net.ae"]}, {"id": 171, "lat": 25.26038, "lng": 55.29891, "org": "Emirates Telecommunications Corporation", "city": "Bur Dubai", "api": "Exposed PLC/RTU Protocols", "count": 4, "ips": ["2.49.10.74", "2.49.190.207", "83.110.84.48", "92.97.252.157"], "domains": ["alshamil.net.ae"]}, {"id": 172, "lat": 25.07725, "lng": 55.30927, "org": "Emirates Integrated Telecommunications Company PJSC (EITC-DU)", "city": "Dubai", "api": "Exposed PLC/RTU Protocols", "count": 8, "ips": ["87.200.254.247", "87.201.63.202", "94.200.134.162", "94.201.39.130", "94.202.14.247", "94.204.169.174", "94.204.214.118", "94.204.96.168"], "domains": []}, {"id": 173, "lat": 24.19167, "lng": 55.76056, "org": "Havana Cafe", "city": "Al Ain City", "api": "Exposed PLC/RTU Protocols", "count": 1, "ips": ["83.110.62.191"], "domains": ["alshamil.net.ae"]}, {"id": 174, "lat": 25.11641, "lng": 56.34141, "org": "Emirates Telecommunications Corporation", "city": "Al Fujairah City", "api": "Exposed PLC/RTU Protocols", "count": 7, "ips": ["2.51.247.41", "2.51.249.128", "2.51.250.227", "2.51.252.64", "86.96.86.11", "86.97.43.216", "86.99.115.132"], "domains": ["alshamil.net.ae"]}, {"id": 175, "lat": 24.34794, "lng": 54.55368, "org": "Emirates Telecommunications Corporation", "city": "Mohammed Bin Zayed City", "api": "Exposed PLC/RTU Protocols", "count": 8, "ips": ["176.205.237.20", "2.50.208.221", "2.50.223.108", "2.50.248.145", "2.50.253.51", "2.50.255.101", "92.99.46.81", "92.99.79.216"], "domains": ["alshamil.net.ae"]}, {"id": 176, "lat": 25.1351, "lng": 55.2273, "org": "Emirates Telecommunications Corporation", "city": "Dubai", "api": "Exposed PLC/RTU Protocols", "count": 1, "ips": ["31.215.166.158"], "domains": []}, {"id": 177, "lat": 25.55073, "lng": 55.68619, "org": "Emirates Telecommunications Corporation", "city": "Al Raafah", "api": "Exposed PLC/RTU Protocols", "count": 3, "ips": ["86.97.104.27", "86.97.105.223", "86.97.109.130"], "domains": ["alshamil.net.ae"]}, {"id": 178, "lat": 24.45118, "lng": 54.39696, "org": "Emirates Internet", "city": "Abu Dhabi", "api": "Exposed PLC/RTU Protocols", "count": 1, "ips": ["217.164.209.234"], "domains": ["alshamil.net.ae"]}, {"id": 179, "lat": 24.42588, "lng": 54.605, "org": "Emirates Telecommunications Corporation", "city": "Khalifah A City", "api": "Exposed PLC/RTU Protocols", "count": 7, "ips": ["176.205.228.59", "176.205.230.168", "31.215.135.62", "83.110.21.232", "92.96.137.7", "92.96.203.127", "92.96.206.218"], "domains": ["alshamil.net.ae"]}, {"id": 180, "lat": 25.07725, "lng": 55.30927, "org": "Dubai Marina POP1", "city": "Dubai", "api": "Exposed PLC/RTU Protocols", "count": 1, "ips": ["94.203.132.56"], "domains": []}, {"id": 181, "lat": 25.11641, "lng": 56.34141, "org": "RCS Technologies FZE LLC", "city": "Al Fujairah City", "api": "Exposed PLC/RTU Protocols", "count": 1, "ips": ["188.208.110.225"], "domains": []}, {"id": 182, "lat": 25.07725, "lng": 55.30927, "org": "EDIS Infrastructure in UAE", "city": "Dubai", "api": "Exposed PLC/RTU Protocols", "count": 2, "ips": ["89.31.120.20", "89.31.120.239"], "domains": ["89.in-addr.arpa"]}, {"id": 183, "lat": 25.16744, "lng": 55.40708, "org": "Emirates Telecommunications Corporation", "city": "Warīsān", "api": "Exposed PLC/RTU Protocols", "count": 7, "ips": ["86.97.120.56", "86.99.164.203", "86.99.189.94", "86.99.62.143", "92.97.126.158", "92.97.126.247", "92.98.31.86"], "domains": ["alshamil.net.ae"]}, {"id": 184, "lat": 24.39268, "lng": 54.70779, "org": "Emirates Telecommunications Corporation", "city": "Al Shamkhah City", "api": "Exposed PLC/RTU Protocols", "count": 4, "ips": ["176.205.169.46", "94.59.178.207", "94.59.254.56", "94.59.98.104"], "domains": ["alshamil.net.ae"]}, {"id": 185, "lat": 25.40177, "lng": 55.47878, "org": "Emirates Integrated Telecommunications Company PJSC", "city": "Ajman City", "api": "Exposed PLC/RTU Protocols", "count": 1, "ips": ["94.207.96.213"], "domains": []}, {"id": 186, "lat": 25.31532, "lng": 55.63211, "org": "TOP SPEED INTERNET SERVICE", "city": "Al Sajaah", "api": "Exposed PLC/RTU Protocols", "count": 1, "ips": ["83.110.169.191"], "domains": ["alshamil.net.ae"]}, {"id": 187, "lat": 25.33132, "lng": 56.34199, "org": "Emirates Telecommunications Corporation", "city": "Khawr Fakkān", "api": "Exposed PLC/RTU Protocols", "count": 2, "ips": ["86.97.47.139", "92.98.128.169"], "domains": ["alshamil.net.ae"]}, {"id": 188, "lat": 25.11641, "lng": 56.34141, "org": "BlueVPS OU", "city": "Al Fujairah City", "api": "Exposed PLC/RTU Protocols", "count": 1, "ips": ["45.86.228.253"], "domains": []}, {"id": 189, "lat": 25.07725, "lng": 55.30927, "org": "Twinty Four Seven Internet", "city": "Dubai", "api": "Exposed PLC/RTU Protocols", "count": 1, "ips": ["83.110.168.163"], "domains": ["alshamil.net.ae"]}, {"id": 190, "lat": 25.07725, "lng": 55.30927, "org": "Emirates Integrated Telecommunications Company PJSC", "city": "Dubai", "api": "Exposed PLC/RTU Protocols", "count": 6, "ips": ["5.30.110.115", "5.30.208.223", "5.30.22.93", "5.30.98.157", "94.206.157.103", "94.206.157.17"], "domains": []}, {"id": 191, "lat": 25.0513, "lng": 56.35422, "org": "Games Network", "city": "Kalbā", "api": "Exposed PLC/RTU Protocols", "count": 1, "ips": ["86.98.121.85"], "domains": ["alshamil.net.ae"]}, {"id": 192, "lat": 24.19167, "lng": 55.76056, "org": "EMIRATES TELECOMMUNICATIONS GROUP COMPANY (ETISALAT GROUP) PJSC", "city": "Al Ain City", "api": "Exposed PLC/RTU Protocols", "count": 1, "ips": ["217.165.181.139"], "domains": ["alshamil.net.ae"]}, {"id": 193, "lat": 25.07725, "lng": 55.30927, "org": "kangaroo intenet", "city": "Dubai", "api": "Exposed PLC/RTU Protocols", "count": 1, "ips": ["83.110.183.115"], "domains": ["alshamil.net.ae"]}, {"id": 194, "lat": 25.07725, "lng": 55.30927, "org": "Somali Wireless", "city": "Dubai", "api": "Exposed PLC/RTU Protocols", "count": 1, "ips": ["154.72.25.182"], "domains": []}, {"id": 195, "lat": 25.07725, "lng": 55.30927, "org": "EDIS INFRASTRUCTURE IN UAE", "city": "Dubai", "api": "Exposed PLC/RTU Protocols", "count": 2, "ips": ["91.132.93.215", "91.132.93.94"], "domains": ["91.in-addr.arpa"]}, {"id": 196, "lat": 24.45118, "lng": 54.39696, "org": "G42 CLOUD TECHNOLOGY L.L.C.", "city": "Abu Dhabi", "api": "Exposed PLC/RTU Protocols", "count": 32, "ips": ["188.116.28.192", "188.116.28.194", "188.116.28.198", "188.116.28.199", "188.116.28.203", "188.116.28.213", "188.116.28.215", "188.116.28.216", "188.116.28.225", "188.116.28.226", "188.116.28.227", "188.116.28.229", "188.116.28.233", "188.116.28.237", "188.116.28.238", "188.116.28.242", "188.116.28.246", "188.116.28.251", "188.116.28.252", "77.242.240.10"], "domains": ["g42cloud.com"]}, {"id": 197, "lat": 25.07725, "lng": 55.30927, "org": "", "city": "Dubai", "api": "Exposed PLC/RTU Protocols", "count": 71, "ips": ["151.242.39.101", "151.242.39.106", "151.242.39.107", "151.242.39.109", "151.242.39.111", "151.242.39.117", "151.242.39.121", "151.242.39.127", "151.242.39.129", "151.242.39.136", "151.242.39.139", "151.242.39.140", "151.242.39.141", "151.242.39.144", "151.242.39.146", "151.242.39.15", "151.242.39.153", "151.242.39.154", "151.242.39.16", "151.242.39.160"], "domains": []}, {"id": 198, "lat": 24.45118, "lng": 54.39696, "org": "IWAN Base Station", "city": "Abu Dhabi", "api": "Exposed PLC/RTU Protocols", "count": 2, "ips": ["217.164.192.199", "217.164.196.215"], "domains": ["alshamil.net.ae"]}, {"id": 199, "lat": 25.31532, "lng": 55.63211, "org": "Al Buteena Internet", "city": "Al Sajaah", "api": "Exposed PLC/RTU Protocols", "count": 1, "ips": ["83.110.119.224"], "domains": ["alshamil.net.ae"]}, {"id": 200, "lat": 25.07725, "lng": 55.30927, "org": "Dediserve Dubai", "city": "Dubai", "api": "Exposed PLC/RTU Protocols", "count": 3, "ips": ["109.169.72.161", "109.169.72.218", "109.169.72.59"], "domains": []}, {"id": 201, "lat": 25.07725, "lng": 55.30927, "org": "Buzinessware FZCO", "city": "Dubai", "api": "Exposed PLC/RTU Protocols", "count": 1, "ips": ["185.241.124.171"], "domains": ["buzinesscloud.com"]}, {"id": 202, "lat": 25.07725, "lng": 55.30927, "org": "ITGLOBAL COM DMCC", "city": "Dubai", "api": "Exposed PLC/RTU Protocols", "count": 1, "ips": ["185.234.10.102"], "domains": []}, {"id": 203, "lat": 23.65416, "lng": 53.70522, "org": "Emirates Telecommunications Corporation", "city": "Zayed City", "api": "Exposed PLC/RTU Protocols", "count": 1, "ips": ["92.96.214.207"], "domains": ["alshamil.net.ae"]}, {"id": 204, "lat": 24.19167, "lng": 55.76056, "org": "Emirates Internet", "city": "Al Ain City", "api": "Exposed PLC/RTU Protocols", "count": 2, "ips": ["217.164.218.161", "217.164.229.218"], "domains": ["alshamil.net.ae"]}, {"id": 205, "lat": 25.11641, "lng": 56.34141, "org": "Meteverse Limited.", "city": "Al Fujairah City", "api": "Exposed PLC/RTU Protocols", "count": 16, "ips": ["138.113.110.107", "138.113.110.11", "138.113.110.127", "138.113.110.17", "138.113.110.20", "138.113.110.21", "138.113.110.241", "138.113.110.243", "138.113.110.245", "138.113.110.27", "138.113.110.38", "138.113.110.39", "138.113.110.48", "138.113.110.54", "138.113.110.84", "138.113.110.93"], "domains": []}, {"id": 206, "lat": 25.33737, "lng": 55.41206, "org": "EMIRATES TELECOMMUNICATIONS GROUP COMPANY (ETISALAT GROUP) PJSC", "city": "Sharjah", "api": "Exposed PLC/RTU Protocols", "count": 2, "ips": ["86.98.180.225", "86.98.183.203"], "domains": ["alshamil.net.ae"]}, {"id": 207, "lat": 25.07725, "lng": 55.30927, "org": "ACEVILLE PTE.LTD.", "city": "Dubai", "api": "Exposed PLC/RTU Protocols", "count": 4, "ips": ["43.175.25.106", "43.175.25.120", "43.175.25.125", "43.175.25.155"], "domains": []}, {"id": 208, "lat": 25.11641, "lng": 56.34141, "org": "CDNetworks Inc", "city": "Al Fujairah City", "api": "Exposed PLC/RTU Protocols", "count": 13, "ips": ["163.171.178.120", "163.171.178.166", "163.171.178.204", "163.171.178.238", "163.171.178.30", "163.171.178.41", "163.171.178.68", "163.171.178.71", "163.171.178.75", "163.171.178.90", "163.171.88.18", "163.171.88.23", "163.171.88.8"], "domains": []}, {"id": 209, "lat": 25.07725, "lng": 55.30927, "org": "Kaopu Cloud HK Limited", "city": "Dubai", "api": "Exposed PLC/RTU Protocols", "count": 1, "ips": ["38.54.75.126"], "domains": []}, {"id": 210, "lat": 25.33737, "lng": 55.41206, "org": "Emirates Integrated Telecommunications Company PJSC", "city": "Sharjah", "api": "Exposed PLC/RTU Protocols", "count": 1, "ips": ["5.30.56.66"], "domains": []}, {"id": 211, "lat": 25.11641, "lng": 56.34141, "org": "Akamai Technologies, Inc.", "city": "Al Fujairah City", "api": "Exposed PLC/RTU Protocols", "count": 3, "ips": ["23.32.95.163", "23.46.217.46", "23.46.217.59"], "domains": ["akamaitechnologies.com"]}, {"id": 212, "lat": 25.33737, "lng": 55.41206, "org": "Emirates Internet", "city": "Sharjah", "api": "Exposed PLC/RTU Protocols", "count": 1, "ips": ["217.164.225.213"], "domains": ["alshamil.net.ae"]}, {"id": 213, "lat": 24.11028, "lng": 52.73056, "org": "Emirates Telecommunications Corporation", "city": "Ar Ruways", "api": "Exposed PLC/RTU Protocols", "count": 2, "ips": ["31.215.60.65", "31.215.62.175"], "domains": []}, {"id": 214, "lat": 25.07725, "lng": 55.30927, "org": "Zenlayer Inc", "city": "Dubai", "api": "Exposed PLC/RTU Protocols", "count": 3, "ips": ["98.98.243.166", "98.98.243.34", "98.98.243.54"], "domains": []}, {"id": 215, "lat": 25.07725, "lng": 55.30927, "org": "Akamai Technologies, Inc.", "city": "Dubai", "api": "Exposed PLC/RTU Protocols", "count": 5, "ips": ["23.63.235.59", "23.63.236.19", "23.63.237.14", "23.63.237.16", "23.63.239.163"], "domains": ["akamaitechnologies.com"]}, {"id": 216, "lat": 25.11641, "lng": 56.34141, "org": "Asia Pacific Network Information Center, Pty. Ltd.", "city": "Al Fujairah City", "api": "Exposed PLC/RTU Protocols", "count": 3, "ips": ["43.152.18.168", "43.152.18.170", "43.152.18.179"], "domains": []}, {"id": 217, "lat": 25.07725, "lng": 55.30927, "org": "3nt solutions LLP", "city": "Dubai", "api": "Exposed PLC/RTU Protocols", "count": 1, "ips": ["176.97.66.27"], "domains": []}, {"id": 218, "lat": 25.07725, "lng": 55.30927, "org": "Road and Transport Authority", "city": "Dubai", "api": "Exposed PLC/RTU Protocols", "count": 1, "ips": ["83.111.179.128"], "domains": []}, {"id": 219, "lat": 25.07725, "lng": 55.30927, "org": "Motor City POP2", "city": "Dubai", "api": "Exposed PLC/RTU Protocols", "count": 1, "ips": ["94.203.57.210"], "domains": []}, {"id": 220, "lat": 25.26038, "lng": 55.29891, "org": "EMIRATES TELECOMMUNICATIONS GROUP COMPANY (ETISALAT GROUP) PJSC", "city": "Bur Dubai", "api": "Exposed PLC/RTU Protocols", "count": 1, "ips": ["86.96.197.108"], "domains": ["cloudcore.ae"]}, {"id": 221, "lat": 25.31532, "lng": 55.63211, "org": "Al Muadaa Internet", "city": "Al Sajaah", "api": "Exposed PLC/RTU Protocols", "count": 1, "ips": ["83.110.119.128"], "domains": ["alshamil.net.ae"]}, {"id": 222, "lat": 25.16744, "lng": 55.40708, "org": "", "city": "Warīsān", "api": "Exposed PLC/RTU Protocols", "count": 1, "ips": ["151.242.147.70"], "domains": []}, {"id": 223, "lat": 25.07725, "lng": 55.30927, "org": "Incapsula Inc", "city": "Dubai", "api": "Exposed PLC/RTU Protocols", "count": 3, "ips": ["45.223.86.1", "45.223.86.145", "45.223.86.220"], "domains": []}, {"id": 224, "lat": 24.30978, "lng": 54.62944, "org": "Emirates Internet", "city": "Bani Yas City", "api": "Exposed PLC/RTU Protocols", "count": 1, "ips": ["217.164.211.162"], "domains": ["alshamil.net.ae"]}, {"id": 225, "lat": 25.40177, "lng": 55.47878, "org": "EMIRATES TELECOMMUNICATIONS GROUP COMPANY (ETISALAT GROUP) PJSC", "city": "Ajman City", "api": "Exposed PLC/RTU Protocols", "count": 1, "ips": ["83.110.177.67"], "domains": ["alshamil.net.ae"]}, {"id": 226, "lat": 25.11641, "lng": 56.34141, "org": "Kalaam Telecom Kuwait Closed Joint Stock Company", "city": "Al Fujairah City", "api": "Exposed PLC/RTU Protocols", "count": 1, "ips": ["185.170.116.50"], "domains": []}, {"id": 227, "lat": 25.07725, "lng": 55.30927, "org": "M247 Ltd Dubai", "city": "Dubai", "api": "Exposed PLC/RTU Protocols", "count": 2, "ips": ["217.138.193.148", "217.138.193.164"], "domains": []}, {"id": 228, "lat": 25.7091, "lng": 55.80772, "org": "EMIRATES TELECOMMUNICATIONS GROUP COMPANY (ETISALAT GROUP) PJSC", "city": "Al Jazīrah al Ḩamrā’", "api": "Exposed PLC/RTU Protocols", "count": 1, "ips": ["83.110.133.86"], "domains": ["alshamil.net.ae"]}, {"id": 229, "lat": 25.40177, "lng": 55.47878, "org": "PLANET INTERNET", "city": "Ajman City", "api": "Exposed PLC/RTU Protocols", "count": 1, "ips": ["83.110.176.175"], "domains": ["alshamil.net.ae"]}, {"id": 230, "lat": 25.07725, "lng": 55.30927, "org": "Hetzner Online GmbH", "city": "Dubai", "api": "Exposed Engineering Workstations (EWS)", "count": 535, "ips": ["46.224.1.125", "46.224.10.49", "46.224.104.30", "46.224.108.35", "46.224.108.49", "46.224.110.79", "46.224.111.169", "46.224.111.45", "46.224.112.192", "46.224.113.31", "46.224.115.105", "46.224.115.128", "46.224.116.117", "46.224.116.160", "46.224.117.174", "46.224.117.45", "46.224.119.22", "46.224.12.221", "46.224.12.241", "46.224.12.29"], "domains": ["11box.de", "1902dev3.com", "4bw.eu", "activigo.app", "afel.co.uk"]}, {"id": 231, "lat": 25.1351, "lng": 55.2273, "org": "IQWeb FZ-LLC", "city": "Dubai", "api": "Exposed Engineering Workstations (EWS)", "count": 9, "ips": ["186.2.163.226", "186.2.163.45", "186.2.163.87", "186.2.165.204", "186.2.165.245", "186.2.171.21", "190.115.16.2", "190.115.31.122", "190.115.31.197"], "domains": ["ddos-guard.net", "neuralreserve.info"]}, {"id": 232, "lat": 24.45118, "lng": 54.39696, "org": "Oracle Svenska AB", "city": "Abu Dhabi", "api": "Exposed Engineering Workstations (EWS)", "count": 2, "ips": ["84.8.178.247", "84.8.179.47"], "domains": ["oraclerealm29.com"]}, {"id": 233, "lat": 25.07725, "lng": 55.30927, "org": "Microsoft Corporation", "city": "Dubai", "api": "Exposed Engineering Workstations (EWS)", "count": 121, "ips": ["20.174.103.161", "20.174.12.85", "20.174.153.162", "20.174.160.82", "20.174.192.147", "20.174.216.161", "20.174.218.255", "20.174.234.83", "20.174.26.38", "20.174.3.14", "20.174.41.30", "20.174.42.42", "20.174.45.24", "20.174.46.46", "20.174.55.141", "20.174.55.54", "20.174.59.61", "20.174.60.63", "20.174.64.26", "20.174.65.85"], "domains": ["adports.ae", "ajmanded.ae", "alfuttaim.com", "amitintl.com", "azure-api.net"]}, {"id": 234, "lat": 25.07725, "lng": 55.30927, "org": "Amazon Data Services UAE", "city": "Dubai", "api": "Exposed Engineering Workstations (EWS)", "count": 133, "ips": ["158.252.103.221", "158.252.104.114", "158.252.108.162", "158.252.112.228", "158.252.114.72", "158.252.115.231", "158.252.117.67", "158.252.120.110", "158.252.128.190", "158.252.13.28", "158.252.130.133", "158.252.139.63", "158.252.140.229", "158.252.143.175", "158.252.144.123", "158.252.151.38", "158.252.153.217", "158.252.166.72", "158.252.170.91", "158.252.171.205"], "domains": ["a2z.com", "alliancecaretech.com", "amazon.com", "amazonaws.com", "api.aws"]}, {"id": 235, "lat": 25.07725, "lng": 55.30927, "org": "Amazon.com, Inc.", "city": "Dubai", "api": "Exposed Engineering Workstations (EWS)", "count": 70, "ips": ["108.139.59.14", "108.139.60.44", "108.139.60.90", "108.139.61.109", "108.139.61.26", "108.139.62.120", "108.139.62.60", "108.139.63.19", "108.139.65.28", "108.139.66.111", "108.139.66.222", "108.139.68.160", "108.139.71.248", "108.139.74.248", "108.139.74.52", "108.139.76.100", "108.139.76.207", "108.139.76.221", "108.139.77.164", "108.139.77.67"], "domains": ["amazon.com", "amazon.dev", "auone.jp", "aws.dev", "cloudfront.net"]}, {"id": 236, "lat": 25.07725, "lng": 55.30927, "org": "EMIRATES TELECOMMUNICATIONS GROUP COMPANY (ETISALAT GROUP) PJSC", "city": "Dubai", "api": "Exposed Engineering Workstations (EWS)", "count": 33, "ips": ["151.253.119.101", "151.253.126.6", "151.253.138.68", "151.253.143.102", "151.253.143.111", "151.253.143.29", "151.253.143.38", "151.253.158.163", "151.253.164.125", "151.253.229.140", "151.253.229.206", "151.253.229.222", "195.229.39.166", "195.229.39.53", "195.229.39.54", "195.229.39.63", "195.229.39.75", "195.229.57.100", "213.42.158.209", "213.42.212.249"], "domains": ["SGMB.AE", "alshamil.net.ae", "emarineglobal.com", "emexdwc.ae", "etisalat.ae"]}, {"id": 237, "lat": 25.07725, "lng": 55.30927, "org": "DANATA EMIRATES GROUP", "city": "Dubai", "api": "Exposed Engineering Workstations (EWS)", "count": 1, "ips": ["194.170.249.254"], "domains": ["emirates.com"]}, {"id": 238, "lat": 25.07725, "lng": 55.30927, "org": "VAPORVM IT SERVICES DMCC", "city": "Dubai", "api": "Exposed Engineering Workstations (EWS)", "count": 1, "ips": ["185.48.64.53"], "domains": ["encloud-me.com"]}, {"id": 239, "lat": 25.11641, "lng": 56.34141, "org": "Akamai Technologies", "city": "Al Fujairah City", "api": "Exposed Engineering Workstations (EWS)", "count": 26, "ips": ["2.16.44.21", "2.20.249.225", "2.21.231.164", "92.122.0.142", "92.122.0.167", "92.122.10.252", "92.122.10.53", "92.122.10.6", "92.122.11.213", "92.122.11.26", "92.122.3.18", "92.122.3.197", "92.122.5.135", "92.122.5.74", "92.122.6.117", "92.122.6.181", "92.122.6.237", "92.122.6.84", "92.122.8.170", "92.122.9.105"], "domains": ["accretivehealth.com", "actforimpact.bnpparibas", "akamai.net", "akamaitechnologies.com", "apple.com"]}, {"id": 240, "lat": 25.07725, "lng": 55.30927, "org": "EDIS INFRASTRUCTURE IN UAE", "city": "Dubai", "api": "Exposed Engineering Workstations (EWS)", "count": 1, "ips": ["91.132.93.215"], "domains": ["91.in-addr.arpa"]}, {"id": 241, "lat": 25.1351, "lng": 55.2273, "org": "GOLD IP L.L.C-FZ", "city": "Dubai", "api": "Exposed Engineering Workstations (EWS)", "count": 11, "ips": ["217.60.48.41", "217.60.49.127", "217.60.49.185", "217.60.49.212", "217.60.50.54", "217.60.50.79", "217.60.51.153", "217.60.51.195", "217.60.51.237", "217.60.51.24", "217.60.51.34"], "domains": []}, {"id": 242, "lat": 25.33737, "lng": 55.41206, "org": "Emirates Telecommunications Corporation", "city": "Sharjah", "api": "Exposed Engineering Workstations (EWS)", "count": 55, "ips": ["109.177.193.130", "109.177.197.67", "109.177.198.115", "2.49.59.112", "2.49.59.179", "2.49.61.150", "2.50.101.169", "2.50.14.184", "2.50.26.37", "2.50.31.54", "2.50.52.174", "2.50.54.143", "2.50.98.168", "2.51.127.18", "2.51.46.91", "2.51.47.212", "217.165.103.83", "217.165.153.169", "31.215.138.135", "5.107.126.78"], "domains": ["3cx.ae", "alshamil.net.ae", "arh.ae", "draytek.com", "fortiddns.com"]}, {"id": 243, "lat": 25.07725, "lng": 55.30927, "org": "Microsoft Limited", "city": "Dubai", "api": "Exposed Engineering Workstations (EWS)", "count": 3, "ips": ["172.164.215.22", "172.164.226.107", "172.164.242.9"], "domains": ["asadataplane.com", "atbpay.me", "orva.app"]}, {"id": 244, "lat": 25.07725, "lng": 55.30927, "org": "Emirates Integrated Telecommunications Company PJSC (EITC-DU)", "city": "Dubai", "api": "Exposed Engineering Workstations (EWS)", "count": 15, "ips": ["80.227.3.196", "80.227.52.42", "80.227.61.62", "87.200.254.247", "87.201.144.189", "87.201.193.118", "87.201.63.202", "91.72.120.84", "91.72.147.254", "91.72.196.60", "91.74.145.210", "94.201.17.137", "94.204.15.241", "94.205.83.251", "94.205.84.232"], "domains": ["danmagi.com", "emirates.group", "sna.tv", "voicemeetme.com"]}, {"id": 245, "lat": 25.1351, "lng": 55.2273, "org": "Incapsula Inc", "city": "Dubai", "api": "Exposed Engineering Workstations (EWS)", "count": 21, "ips": ["45.64.64.173", "45.64.64.22", "45.64.64.241", "45.64.64.88", "45.64.66.122", "45.64.66.170", "45.64.66.172", "45.64.66.180", "45.64.66.202", "45.64.66.210", "45.64.66.22", "45.64.66.232", "45.64.66.28", "45.64.66.31", "45.64.67.163", "45.64.67.173", "45.64.67.190", "45.64.67.192", "45.64.67.47", "45.64.67.89"], "domains": ["ecacum-ocp.fr", "galdermanordic.com", "gbgplc.com", "imperva.com", "mckessonaccelerate.com"]}, {"id": 246, "lat": 25.07725, "lng": 55.30927, "org": "Oracle Svenska AB", "city": "Dubai", "api": "Exposed Engineering Workstations (EWS)", "count": 7, "ips": ["84.235.240.103", "84.235.241.18", "84.235.241.34", "84.235.242.52", "84.235.245.235", "84.235.251.141", "84.235.251.82"], "domains": ["adamnotfound.com", "aswat.co", "paymobsolutions.com"]}, {"id": 247, "lat": 24.19167, "lng": 55.76056, "org": "Oracle Svenska AB", "city": "Al Ain City", "api": "Exposed Engineering Workstations (EWS)", "count": 2, "ips": ["84.235.137.32", "84.235.151.173"], "domains": ["etisalat.ae"]}, {"id": 248, "lat": 25.07725, "lng": 55.30927, "org": "Akamai Technologies, Inc.", "city": "Dubai", "api": "Exposed Engineering Workstations (EWS)", "count": 16, "ips": ["104.109.251.192", "23.194.193.130", "23.194.193.160", "23.194.193.177", "23.194.193.204", "23.194.193.99", "23.194.194.106", "23.194.194.149", "23.194.195.128", "23.47.112.183", "23.47.112.46", "23.47.113.115", "23.47.113.224", "23.55.113.128", "23.63.235.12", "23.63.235.30"], "domains": ["akamai.net", "akamaitechnologies.com", "autodesk.com", "gcash.com", "goo.ne.jp"]}, {"id": 249, "lat": 25.11641, "lng": 56.34141, "org": "Akamai Technologies, Inc.", "city": "Al Fujairah City", "api": "Exposed Engineering Workstations (EWS)", "count": 63, "ips": ["104.73.172.99", "184.29.28.193", "184.29.29.96", "23.195.39.126", "23.195.60.104", "23.195.60.188", "23.195.62.117", "23.195.62.232", "23.195.62.246", "23.195.63.237", "23.208.212.161", "23.208.215.207", "23.32.93.22", "23.35.128.11", "23.35.128.124", "23.35.129.113", "23.35.130.118", "23.35.131.249", "23.35.132.139", "23.35.132.60"], "domains": ["0101.co.jp", "akamai.com", "akamai.net", "akamaitechnologies.com", "apple.com"]}, {"id": 250, "lat": 25.07725, "lng": 55.30927, "org": "A100 ROW Inc", "city": "Dubai", "api": "Exposed Engineering Workstations (EWS)", "count": 37, "ips": ["51.112.127.131", "51.112.13.171", "51.112.150.249", "51.112.157.92", "51.112.163.164", "51.112.167.43", "51.112.168.178", "51.112.17.81", "51.112.187.235", "51.112.2.43", "51.112.202.119", "51.112.209.50", "51.112.218.50", "51.112.230.201", "51.112.239.73", "51.112.24.163", "51.112.250.224", "51.112.252.192", "51.112.252.36", "51.112.253.148"], "domains": ["akur8-tech.com", "amazonaws.com", "api.aws", "aws.dev", "biointellisense.com"]}, {"id": 251, "lat": 24.45118, "lng": 54.39696, "org": "Emirates Telecommunications Corporation", "city": "Abu Dhabi", "api": "Exposed Engineering Workstations (EWS)", "count": 44, "ips": ["176.205.100.121", "176.205.36.215", "2.48.134.81", "2.50.158.161", "2.50.16.242", "2.50.182.58", "2.50.74.148", "217.164.13.7", "217.164.246.11", "217.164.59.188", "217.165.205.204", "217.165.205.213", "217.165.56.26", "31.215.137.21", "31.215.140.133", "31.215.159.14", "31.215.183.18", "31.215.192.176", "5.194.172.16", "5.194.194.139"], "domains": ["alshamil.net.ae", "draytek.com", "fortiddns.com"]}, {"id": 252, "lat": 25.00255, "lng": 55.10811, "org": "EMIRATES TELECOMMUNICATIONS GROUP COMPANY (ETISALAT GROUP) PJSC", "city": "Jebel Ali", "api": "Exposed Engineering Workstations (EWS)", "count": 1, "ips": ["5.195.24.36"], "domains": ["element.com"]}, {"id": 253, "lat": 25.33737, "lng": 55.41206, "org": "M E Development", "city": "Sharjah", "api": "Exposed Engineering Workstations (EWS)", "count": 1, "ips": ["83.111.75.120"], "domains": []}, {"id": 254, "lat": 25.07725, "lng": 55.30927, "org": "Emirates Telecommunications Corporation", "city": "Dubai", "api": "Exposed Engineering Workstations (EWS)", "count": 51, "ips": ["176.204.239.211", "176.204.241.160", "176.205.79.1", "2.48.2.24", "2.49.148.59", "2.49.151.44", "2.49.180.223", "2.49.183.23", "2.49.24.35", "2.49.72.244", "2.49.75.237", "2.49.90.229", "2.49.93.182", "2.49.98.106", "2.50.190.240", "2.50.41.37", "2.50.79.80", "2.51.238.1", "2.51.39.204", "2.51.57.203"], "domains": ["alshamil.net.ae", "arubanetworks.com", "drayddns.com", "draytek.com", "ekfccloud.ae"]}, {"id": 255, "lat": 25.07725, "lng": 55.30927, "org": "China_Telecom_South_Africa", "city": "Dubai", "api": "Exposed Engineering Workstations (EWS)", "count": 1, "ips": ["154.198.3.139"], "domains": ["lifestylehomeway.com"]}, {"id": 256, "lat": 25.11641, "lng": 56.34141, "org": "Fastly, Inc.", "city": "Al Fujairah City", "api": "Exposed Engineering Workstations (EWS)", "count": 5, "ips": ["151.101.141.119", "151.101.141.33", "151.101.142.155", "151.101.142.219", "151.101.142.8"], "domains": ["baqend.com", "grabarz-group.de", "grabarzundpartner.de", "graincorp-seasonupdate.com.au", "hbo.com"]}, {"id": 257, "lat": 25.07725, "lng": 55.30927, "org": "Oracle Corporation", "city": "Dubai", "api": "Exposed Engineering Workstations (EWS)", "count": 35, "ips": ["129.148.212.32", "129.148.212.62", "129.148.214.197", "129.148.220.176", "129.148.220.52", "129.148.221.183", "129.148.222.98", "129.148.223.19", "139.185.45.137", "139.185.47.35", "139.185.49.130", "139.185.52.155", "139.185.52.24", "139.185.56.112", "139.185.57.70", "141.145.145.25", "141.145.153.188", "141.145.153.89", "141.145.153.97", "141.145.157.130"], "domains": ["050005.xyz", "americana-food.com", "aswat.co", "aterosolutions.com", "baysquarelaundry.com"]}, {"id": 258, "lat": 25.07725, "lng": 55.30927, "org": "Emirates Integrated Telecommunications Company PJSC", "city": "Dubai", "api": "Exposed Engineering Workstations (EWS)", "count": 24, "ips": ["2a00:f28:0:1:40:1027:c000:26", "2a00:f28:0:1:40:1027:c000:2a", "2a00:f28:2:241::2", "2a00:f28:2:242::2", "2a00:f28:2:243::2", "5.30.208.223", "5.30.223.219", "5.30.98.157", "5.32.121.30", "5.32.31.154", "5.32.79.101", "94.200.113.50", "94.200.235.10", "94.200.25.154", "94.200.38.58", "94.200.62.214", "94.200.69.150", "94.206.155.5", "94.206.165.102", "94.206.44.130"], "domains": ["arubanetworks.com", "du.ae", "emirates.com", "ktcco.net", "thenetwork-com.com"]}, {"id": 259, "lat": 25.11641, "lng": 56.34141, "org": "CDNetworks", "city": "Al Fujairah City", "api": "Exposed Engineering Workstations (EWS)", "count": 7, "ips": ["101.79.158.136", "101.79.158.14", "101.79.158.166", "101.79.158.201", "101.79.158.67", "101.79.158.98", "14.0.56.187"], "domains": []}, {"id": 260, "lat": 25.07725, "lng": 55.30927, "org": "Emirates Internet", "city": "Dubai", "api": "Exposed Engineering Workstations (EWS)", "count": 1, "ips": ["194.170.165.100"], "domains": ["emirates.net.ae", "fbcdn.net"]}, {"id": 261, "lat": 25.07725, "lng": 55.30927, "org": "EDIS Infrastructure in UAE", "city": "Dubai", "api": "Exposed Engineering Workstations (EWS)", "count": 2, "ips": ["89.31.120.20", "89.31.120.88"], "domains": ["89.in-addr.arpa", "encryptitservices.com"]}, {"id": 262, "lat": 25.11641, "lng": 56.34141, "org": "Akamai International, BV", "city": "Al Fujairah City", "api": "Exposed Engineering Workstations (EWS)", "count": 11, "ips": ["23.206.100.225", "23.206.102.235", "23.206.103.94", "23.206.104.128", "23.206.104.91", "23.206.105.164", "23.206.106.112", "23.206.111.205", "23.206.111.93", "23.206.98.162", "23.206.98.210"], "domains": ["53.com", "akamaitechnologies.com", "bigmachines.com", "oracle.com"]}, {"id": 263, "lat": 25.07725, "lng": 55.30927, "org": "Bedge Co Limited", "city": "Dubai", "api": "Exposed Engineering Workstations (EWS)", "count": 1, "ips": ["154.94.76.52"], "domains": []}, {"id": 264, "lat": 24.45118, "lng": 54.39696, "org": "Oryxlabs Technologies - Sole Proprietorship L.L.C.", "city": "Abu Dhabi", "api": "Exposed Engineering Workstations (EWS)", "count": 6, "ips": ["94.140.0.214", "94.140.0.59", "94.140.0.6", "94.140.0.60", "94.140.0.61", "94.140.0.70"], "domains": []}, {"id": 265, "lat": 25.07725, "lng": 55.30927, "org": "SAP SE", "city": "Dubai", "api": "Exposed Engineering Workstations (EWS)", "count": 2, "ips": ["130.214.80.205", "130.214.81.189"], "domains": ["ondemand.com"]}, {"id": 266, "lat": 24.30978, "lng": 54.62944, "org": "Emirates Telecommunications Corporation", "city": "Bani Yas City", "api": "Exposed Engineering Workstations (EWS)", "count": 15, "ips": ["176.205.201.7", "176.205.202.19", "2.50.158.180", "2.50.193.0", "2.50.205.42", "217.164.243.123", "31.215.28.160", "92.96.58.188", "94.59.155.13", "94.59.155.146", "94.59.165.29", "94.59.189.94", "94.59.43.36", "94.59.48.12", "94.59.88.18"], "domains": ["alshamil.net.ae", "draytek.com"]}, {"id": 267, "lat": 25.11641, "lng": 56.34141, "org": "EMIRATES TELECOMMUNICATIONS GROUP COMPANY (ETISALAT GROUP) PJSC", "city": "Al Fujairah City", "api": "Exposed Engineering Workstations (EWS)", "count": 1, "ips": ["5.195.173.215"], "domains": []}, {"id": 268, "lat": 25.33737, "lng": 55.41206, "org": "EMIRATES TELECOMMUNICATIONS GROUP COMPANY (ETISALAT GROUP) PJSC", "city": "Sharjah", "api": "Exposed Engineering Workstations (EWS)", "count": 4, "ips": ["213.42.133.166", "5.195.26.22", "5.195.29.225", "94.56.44.36"], "domains": ["leodar-trackandtrace.com", "moe.gov.ae"]}, {"id": 269, "lat": 25.07725, "lng": 55.30927, "org": "Alibaba Cloud - AE(Dubai)", "city": "Dubai", "api": "Exposed Engineering Workstations (EWS)", "count": 33, "ips": ["47.91.100.129", "47.91.100.138", "47.91.100.151", "47.91.100.153", "47.91.100.159", "47.91.100.173", "47.91.100.188", "47.91.100.230", "47.91.100.231", "47.91.100.233", "47.91.100.234", "47.91.101.67", "47.91.104.110", "47.91.104.193", "47.91.106.167", "47.91.107.139", "47.91.109.17", "47.91.110.147", "47.91.110.148", "47.91.110.221"], "domains": ["a2rsolutions.com", "aliyuncs.com", "autoglm.ai", "ctclouds.com"]}, {"id": 270, "lat": 25.11641, "lng": 56.34141, "org": "MEDIANOVA INTERNET HIZMETLERI VE TICARET ANONIM SIRKETI", "city": "Al Fujairah City", "api": "Exposed Engineering Workstations (EWS)", "count": 1, "ips": ["185.21.180.212"], "domains": []}, {"id": 271, "lat": 25.07725, "lng": 55.30927, "org": "VPN Consumer Dubai, United Arab Emirates", "city": "Dubai", "api": "Exposed Engineering Workstations (EWS)", "count": 2, "ips": ["170.62.239.170", "170.62.239.204"], "domains": []}, {"id": 272, "lat": 25.07725, "lng": 55.30927, "org": "M247 LTD, Doha Infrastructure", "city": "Dubai", "api": "Exposed Engineering Workstations (EWS)", "count": 4, "ips": ["95.181.234.10", "95.181.234.12", "95.181.234.13", "95.181.234.142"], "domains": []}, {"id": 273, "lat": 24.43208, "lng": 54.61582, "org": "Oracle Corporation", "city": "Masdar City", "api": "Exposed Engineering Workstations (EWS)", "count": 7, "ips": ["129.149.48.77", "129.149.49.138", "129.149.50.118", "129.151.129.216", "129.151.130.205", "129.151.140.25", "129.151.149.235"], "domains": ["absolute.cards", "oraclecloud.com"]}, {"id": 274, "lat": 25.78953, "lng": 55.9432, "org": "Emirates Telecommunications Corporation", "city": "Ras Al Khaimah City", "api": "Exposed Engineering Workstations (EWS)", "count": 9, "ips": ["5.193.152.2", "5.193.181.27", "5.193.185.17", "5.193.220.218", "5.193.220.65", "5.193.244.236", "5.194.176.151", "86.96.87.116", "86.97.217.224"], "domains": ["alshamil.net.ae"]}, {"id": 275, "lat": 25.07725, "lng": 55.30927, "org": "3NT SOLUTIONS LLP", "city": "Dubai", "api": "Exposed Engineering Workstations (EWS)", "count": 2, "ips": ["38.180.11.197", "38.180.27.192"], "domains": []}, {"id": 276, "lat": 25.07725, "lng": 55.30927, "org": "Palo Alto Networks, Inc", "city": "Dubai", "api": "Exposed Engineering Workstations (EWS)", "count": 2, "ips": ["130.41.74.203", "130.41.74.234"], "domains": []}, {"id": 277, "lat": 25.00255, "lng": 55.10811, "org": "Emirates Telecommunications Corporation", "city": "Jebel Ali", "api": "Exposed Engineering Workstations (EWS)", "count": 6, "ips": ["2.51.108.16", "2.51.203.87", "83.110.151.41", "86.98.61.159", "86.99.170.66", "86.99.41.166"], "domains": ["alshamil.net.ae", "draytek.com", "gerritotto.com"]}, {"id": 278, "lat": 24.45118, "lng": 54.39696, "org": "Emirates Center for Strategic Research", "city": "Abu Dhabi", "api": "Exposed Engineering Workstations (EWS)", "count": 1, "ips": ["194.170.28.222"], "domains": ["ecssr.ae"]}, {"id": 279, "lat": 25.26038, "lng": 55.29891, "org": "EMIRATES TELECOMMUNICATIONS GROUP COMPANY (ETISALAT GROUP) PJSC", "city": "Bur Dubai", "api": "Exposed Engineering Workstations (EWS)", "count": 1, "ips": ["151.253.24.162"], "domains": []}, {"id": 280, "lat": 25.11641, "lng": 56.34141, "org": "Emirates Telecommunications Corporation", "city": "Al Fujairah City", "api": "Exposed Engineering Workstations (EWS)", "count": 5, "ips": ["2.51.247.41", "2.51.250.227", "217.165.223.12", "83.110.101.162", "86.97.43.216"], "domains": ["alshamil.net.ae"]}, {"id": 281, "lat": 25.07725, "lng": 55.30927, "org": "ITGLOBAL COM DMCC", "city": "Dubai", "api": "Exposed Engineering Workstations (EWS)", "count": 2, "ips": ["185.209.49.166", "185.234.10.102"], "domains": ["dak-g.com", "goldappleme.com"]}, {"id": 282, "lat": 25.07725, "lng": 55.30927, "org": "M247 Europe - Dubai Infrastructure", "city": "Dubai", "api": "Exposed Engineering Workstations (EWS)", "count": 4, "ips": ["146.70.131.108", "146.70.131.109", "146.70.131.115", "146.70.155.161"], "domains": []}, {"id": 283, "lat": 25.07725, "lng": 55.30927, "org": "Fiber Logic Inc.", "city": "Dubai", "api": "Exposed Engineering Workstations (EWS)", "count": 1, "ips": ["162.213.25.36"], "domains": ["16clouds.com"]}, {"id": 284, "lat": 25.07725, "lng": 55.30927, "org": "Buzinessware FZCO", "city": "Dubai", "api": "Exposed Engineering Workstations (EWS)", "count": 2, "ips": ["185.241.124.133", "89.35.193.29"], "domains": ["buzinesscloud.com", "nationalambulance.ae"]}, {"id": 285, "lat": 24.45118, "lng": 54.39696, "org": "G42 CLOUD TECHNOLOGY L.L.C.", "city": "Abu Dhabi", "api": "Exposed Engineering Workstations (EWS)", "count": 3, "ips": ["188.116.28.247", "77.242.240.5", "77.242.240.8"], "domains": ["g42cloud.com"]}, {"id": 286, "lat": 24.45118, "lng": 54.39696, "org": "NEW YORK UNIVERSITY ABU DHABI - ABU DHABI Foreign Branch-USA", "city": "Abu Dhabi", "api": "Exposed Engineering Workstations (EWS)", "count": 2, "ips": ["91.230.41.210", "91.230.41.212"], "domains": ["nyu.edu"]}, {"id": 287, "lat": 24.45118, "lng": 54.39696, "org": "FIRST ABU DHABI BANK P.J.S.C", "city": "Abu Dhabi", "api": "Exposed Engineering Workstations (EWS)", "count": 2, "ips": ["81.16.132.141", "81.16.133.135"], "domains": ["bankfab.com"]}, {"id": 288, "lat": 25.1351, "lng": 55.2273, "org": "NetConnect Innovations LLC", "city": "Dubai", "api": "Exposed Engineering Workstations (EWS)", "count": 5, "ips": ["138.128.224.144", "138.128.225.159", "138.128.225.185", "138.128.225.198", "138.128.225.217"], "domains": []}, {"id": 289, "lat": 24.34794, "lng": 54.55368, "org": "Emirates Telecommunications Corporation", "city": "Mohammed Bin Zayed City", "api": "Exposed Engineering Workstations (EWS)", "count": 7, "ips": ["2.50.173.151", "2.50.208.221", "2.50.223.144", "2.50.248.145", "2.50.253.51", "2.50.255.101", "92.99.79.216"], "domains": ["alshamil.net.ae", "green-uae.com"]}, {"id": 290, "lat": 24.42588, "lng": 54.605, "org": "Emirates Telecommunications Corporation", "city": "Khalifah A City", "api": "Exposed Engineering Workstations (EWS)", "count": 5, "ips": ["176.205.230.168", "217.164.230.218", "31.215.135.62", "5.194.158.151", "92.96.206.218"], "domains": ["alshamil.net.ae"]}, {"id": 291, "lat": 24.35893, "lng": 54.48267, "org": "Emirates Telecommunications Corporation", "city": "Musaffah", "api": "Exposed Engineering Workstations (EWS)", "count": 3, "ips": ["86.97.9.99", "86.98.157.223", "92.96.181.175"], "domains": ["alshamil.net.ae"]}, {"id": 292, "lat": 25.07725, "lng": 55.30927, "org": "Safa Itc General Trading LLC", "city": "Dubai", "api": "Exposed Engineering Workstations (EWS)", "count": 1, "ips": ["94.200.89.250"], "domains": ["safa-telecom.com"]}, {"id": 293, "lat": 25.1351, "lng": 55.2273, "org": "Zain Omantel International FZ-LLC", "city": "Dubai", "api": "Exposed Engineering Workstations (EWS)", "count": 2, "ips": ["185.200.126.77", "185.200.126.87"], "domains": ["googleusercontent.com", "xn--ngstr-lra8j.com", "ytimg.com"]}, {"id": 294, "lat": 24.45118, "lng": 54.39696, "org": "Emirates Integrated Telecommunications Company PJSC (EITC-DU)", "city": "Abu Dhabi", "api": "Exposed Engineering Workstations (EWS)", "count": 1, "ips": ["94.202.209.29"], "domains": []}, {"id": 295, "lat": 25.11641, "lng": 56.34141, "org": "Telecommunications Kish Company TKC HQ", "city": "Al Fujairah City", "api": "Exposed Engineering Workstations (EWS)", "count": 1, "ips": ["195.229.6.167"], "domains": []}, {"id": 296, "lat": 25.07725, "lng": 55.30927, "org": "Zenlayer Inc", "city": "Dubai", "api": "Exposed Engineering Workstations (EWS)", "count": 3, "ips": ["192.254.88.242", "98.98.238.119", "98.98.240.94"], "domains": []}, {"id": 297, "lat": 25.7091, "lng": 55.80772, "org": "Emirates Telecommunications Corporation", "city": "Al Jazīrah al Ḩamrā’", "api": "Exposed Engineering Workstations (EWS)", "count": 2, "ips": ["86.98.194.150", "86.98.195.236"], "domains": ["alshamil.net.ae"]}, {"id": 298, "lat": 25.07725, "lng": 55.30927, "org": "General Motors", "city": "Dubai", "api": "Exposed Engineering Workstations (EWS)", "count": 1, "ips": ["83.111.90.234"], "domains": []}, {"id": 299, "lat": 24.45118, "lng": 54.39696, "org": "EMIRATES TELECOMMUNICATIONS GROUP COMPANY (ETISALAT GROUP) PJSC", "city": "Abu Dhabi", "api": "Exposed Engineering Workstations (EWS)", "count": 4, "ips": ["151.253.34.34", "217.165.173.70", "86.96.199.2", "86.98.118.136"], "domains": ["alshamil.net.ae"]}, {"id": 300, "lat": 25.11641, "lng": 56.34141, "org": "Google LLC", "city": "Al Fujairah City", "api": "Exposed Engineering Workstations (EWS)", "count": 1, "ips": ["142.250.181.148"], "domains": ["1e100.net"]}, {"id": 301, "lat": 25.1351, "lng": 55.2273, "org": "SKYDIGITAL TELECOM LTD", "city": "Dubai", "api": "Exposed Engineering Workstations (EWS)", "count": 2, "ips": ["154.197.80.158", "154.197.80.95"], "domains": []}, {"id": 302, "lat": 25.26038, "lng": 55.29891, "org": "Emirates Telecommunications Corporation", "city": "Bur Dubai", "api": "Exposed Engineering Workstations (EWS)", "count": 7, "ips": ["2.49.190.207", "2.50.56.118", "217.165.119.53", "86.98.7.203", "86.98.82.162", "92.97.252.157", "92.97.67.229"], "domains": ["alshamil.net.ae", "draytek.com"]}, {"id": 303, "lat": 24.19167, "lng": 55.76056, "org": "The United Arab Emirates University", "city": "Al Ain City", "api": "Exposed Engineering Workstations (EWS)", "count": 2, "ips": ["178.250.249.154", "178.250.253.105"], "domains": ["uaeu.ac.ae"]}, {"id": 304, "lat": 25.28812, "lng": 55.88157, "org": "IWAN Base Station", "city": "Adh Dhayd", "api": "Exposed Engineering Workstations (EWS)", "count": 1, "ips": ["217.164.198.205"], "domains": ["alshamil.net.ae"]}, {"id": 305, "lat": 25.16744, "lng": 55.40708, "org": "Emirates Telecommunications Corporation", "city": "Warīsān", "api": "Exposed Engineering Workstations (EWS)", "count": 3, "ips": ["5.194.150.99", "86.99.189.94", "92.98.31.86"], "domains": ["alshamil.net.ae", "asus.com", "asusap.com", "asusap.net", "asusnetwork.net"]}, {"id": 306, "lat": 25.07725, "lng": 55.30927, "org": "M247 LTD, Riyadh Infrastructure", "city": "Dubai", "api": "Exposed Engineering Workstations (EWS)", "count": 43, "ips": ["95.181.235.10", "95.181.235.11", "95.181.235.12", "95.181.235.13", "95.181.235.132", "95.181.235.14", "95.181.235.146", "95.181.235.147", "95.181.235.148", "95.181.235.149", "95.181.235.15", "95.181.235.150", "95.181.235.151", "95.181.235.152", "95.181.235.153", "95.181.235.154", "95.181.235.155", "95.181.235.156", "95.181.235.157", "95.181.235.158"], "domains": []}, {"id": 307, "lat": 25.1351, "lng": 55.2273, "org": "IP MARKET - FZCO", "city": "Dubai", "api": "Exposed Engineering Workstations (EWS)", "count": 5, "ips": ["185.37.192.133", "194.79.60.251", "194.79.61.104", "194.79.61.180", "194.79.62.19"], "domains": []}, {"id": 308, "lat": 25.16744, "lng": 55.40708, "org": "", "city": "Warīsān", "api": "Exposed Engineering Workstations (EWS)", "count": 1, "ips": ["151.242.77.147"], "domains": []}, {"id": 309, "lat": 25.11641, "lng": 56.34141, "org": "CDNetworks Inc", "city": "Al Fujairah City", "api": "Exposed Engineering Workstations (EWS)", "count": 3, "ips": ["163.171.178.135", "163.171.178.201", "163.171.178.71"], "domains": []}, {"id": 310, "lat": 25.07725, "lng": 55.30927, "org": "National Crisis and  Emergency Management Authority", "city": "Dubai", "api": "Exposed Engineering Workstations (EWS)", "count": 1, "ips": ["83.111.109.106"], "domains": []}, {"id": 311, "lat": 25.07725, "lng": 55.30927, "org": "FASTLY", "city": "Dubai", "api": "Exposed Engineering Workstations (EWS)", "count": 1, "ips": ["146.75.65.186"], "domains": ["fastly.net"]}, {"id": 312, "lat": 25.07725, "lng": 55.30927, "org": "Asia Pacific Network Information Center, Pty. Ltd.", "city": "Dubai", "api": "Exposed Engineering Workstations (EWS)", "count": 1, "ips": ["43.152.32.119"], "domains": []}, {"id": 313, "lat": 24.34794, "lng": 54.55368, "org": "Barjeel Securities LLC", "city": "Mohammed Bin Zayed City", "api": "Exposed Engineering Workstations (EWS)", "count": 1, "ips": ["92.96.164.27"], "domains": ["alshamil.net.ae"]}, {"id": 314, "lat": 25.1351, "lng": 55.2273, "org": "M247 Europe SRL", "city": "Dubai", "api": "Exposed Engineering Workstations (EWS)", "count": 2, "ips": ["193.187.151.148", "193.187.151.44"], "domains": ["apple.com", "vk-id.me"]}, {"id": 315, "lat": 25.07725, "lng": 55.30927, "org": "", "city": "Dubai", "api": "Exposed Engineering Workstations (EWS)", "count": 2, "ips": ["151.243.87.158", "151.243.87.94"], "domains": []}, {"id": 316, "lat": 25.33132, "lng": 56.34199, "org": "Emirates Telecommunications Corporation", "city": "Khawr Fakkān", "api": "Exposed Engineering Workstations (EWS)", "count": 1, "ips": ["92.98.128.169"], "domains": ["alshamil.net.ae"]}, {"id": 317, "lat": 25.40177, "lng": 55.47878, "org": "Emirates Telecommunications Corporation", "city": "Ajman City", "api": "Exposed Engineering Workstations (EWS)", "count": 7, "ips": ["5.193.110.151", "5.193.116.17", "5.193.119.77", "83.110.159.60", "92.96.131.206", "92.99.175.152", "92.99.28.245"], "domains": ["alshamil.net.ae"]}, {"id": 318, "lat": 25.07725, "lng": 55.30927, "org": "Internet Utilities Europe and Asia Limited", "city": "Dubai", "api": "Exposed Engineering Workstations (EWS)", "count": 1, "ips": ["31.56.119.139"], "domains": []}, {"id": 319, "lat": 24.19167, "lng": 55.76056, "org": "Emirates Telecommunications Corporation", "city": "Al Ain City", "api": "Exposed Engineering Workstations (EWS)", "count": 13, "ips": ["176.205.114.138", "176.205.172.229", "176.205.211.171", "217.164.4.30", "217.164.83.194", "31.215.156.76", "31.215.22.54", "86.97.27.205", "94.59.111.66", "94.59.117.62", "94.59.184.131", "94.59.61.165", "94.59.96.222"], "domains": ["alshamil.net.ae"]}, {"id": 320, "lat": 25.07725, "lng": 55.30927, "org": "Abu Dhabi University LLC", "city": "Dubai", "api": "Exposed Engineering Workstations (EWS)", "count": 1, "ips": ["91.231.11.15"], "domains": ["adu.ac.ae"]}, {"id": 321, "lat": 24.35893, "lng": 54.48267, "org": "EMIRATES TELECOMMUNICATIONS GROUP COMPANY (ETISALAT GROUP) PJSC", "city": "Musaffah", "api": "Exposed Engineering Workstations (EWS)", "count": 1, "ips": ["5.195.111.80"], "domains": []}, {"id": 322, "lat": 25.1351, "lng": 55.2273, "org": "Cloudflare London, LLC", "city": "Dubai", "api": "Exposed Engineering Workstations (EWS)", "count": 4, "ips": ["77.232.140.196", "77.232.140.253", "77.232.140.28", "77.232.140.57"], "domains": []}, {"id": 323, "lat": 24.39268, "lng": 54.70779, "org": "Emirates Telecommunications Corporation", "city": "Al Shamkhah City", "api": "Exposed Engineering Workstations (EWS)", "count": 2, "ips": ["94.59.178.207", "94.59.254.56"], "domains": ["alshamil.net.ae"]}, {"id": 324, "lat": 25.07725, "lng": 55.30927, "org": "CLOUD HOST TECHNOLOGY LLC", "city": "Dubai", "api": "Exposed Engineering Workstations (EWS)", "count": 1, "ips": ["93.177.125.63"], "domains": ["danwayeme.com", "localhost."]}, {"id": 325, "lat": 24.39268, "lng": 54.70779, "org": "IWAN Base Station", "city": "Al Shamkhah City", "api": "Exposed Engineering Workstations (EWS)", "count": 3, "ips": ["217.164.112.130", "217.164.114.113", "217.164.125.18"], "domains": ["alshamil.net.ae"]}, {"id": 326, "lat": 25.11641, "lng": 56.34141, "org": "Melbikomas UAB", "city": "Al Fujairah City", "api": "Exposed Engineering Workstations (EWS)", "count": 3, "ips": ["89.36.162.154", "89.36.162.30", "95.174.68.48"], "domains": ["ds.", "vm."]}, {"id": 327, "lat": 25.07725, "lng": 55.30927, "org": "Zscaler Switzerland GmbH", "city": "Dubai", "api": "Exposed Engineering Workstations (EWS)", "count": 1, "ips": ["87.58.66.149"], "domains": ["zscloud.net"]}, {"id": 328, "lat": 24.45118, "lng": 54.39696, "org": "Abu Dhabi Digital Authority", "city": "Abu Dhabi", "api": "Exposed Engineering Workstations (EWS)", "count": 1, "ips": ["5.194.252.156"], "domains": ["pension.gov.ae"]}, {"id": 329, "lat": 25.31532, "lng": 55.63211, "org": "Emirates Telecommunications Corporation", "city": "Al Sajaah", "api": "Exposed Engineering Workstations (EWS)", "count": 3, "ips": ["31.215.14.98", "31.215.251.124", "94.59.196.179"], "domains": ["alshamil.net.ae"]}, {"id": 330, "lat": 25.0513, "lng": 56.35422, "org": "EMIRATES TELECOMMUNICATIONS GROUP COMPANY (ETISALAT GROUP) PJSC", "city": "Kalbā", "api": "Exposed Engineering Workstations (EWS)", "count": 1, "ips": ["217.165.179.146"], "domains": ["alshamil.net.ae"]}, {"id": 331, "lat": 24.11028, "lng": 52.73056, "org": "Emirates Telecommunications Corporation", "city": "Ar Ruways", "api": "Exposed Engineering Workstations (EWS)", "count": 1, "ips": ["83.110.146.23"], "domains": ["alshamil.net.ae", "draytek.com"]}, {"id": 332, "lat": 24.45118, "lng": 54.39696, "org": "LES LABORATOIRES SERVIER", "city": "Abu Dhabi", "api": "Exposed Engineering Workstations (EWS)", "count": 1, "ips": ["83.111.71.41"], "domains": []}, {"id": 333, "lat": 25.07725, "lng": 55.30927, "org": "Arabian Ranges POP1", "city": "Dubai", "api": "Exposed Engineering Workstations (EWS)", "count": 2, "ips": ["94.203.46.167", "94.203.46.80"], "domains": ["tax.gov.ae"]},